# message_name [message contents] ipc_timestamp ipc_hostname logger_timestamp
# message formats defined: PARAM ODOM FLASER TRUEPOS
# PARAM param_name param_value
# ODOM x y theta
# FLASER num_readings [range_readings] x y theta odom_x odom_y odom_theta
# TRUEPOS true_x true_y true_theta
ODOM 5.77 5.79 0.83 1251717511 chilli 1100
TRUEPOS 5.76 5.80 0.78 1251717511 chilli 1100
FLASER 361 0.62 0.62 0.61 0.61 0.61 0.61 0.6 0.6 0.6 0.59 0.59 0.59 0.59 0.59 0.58 0.58 0.58 0.58 0.57 0.57 0.57 0.57 0.57 0.57 0.56 0.56 0.56 0.56 0.56 0.56 0.55 0.55 0.55 0.55 0.55 0.55 0.55 0.55 0.55 0.54 0.54 0.54 0.54 0.54 0.54 0.54 0.54 0.54 0.54 0.54 0.53 0.53 0.53 0.53 0.53 0.53 0.53 0.53 0.53 0.53 0.53 0.53 0.53 0.53 0.53 0.53 0.53 0.53 0.53 0.53 0.53 0.53 0.53 0.53 0.53 0.53 0.53 0.53 0.53 0.53 0.53 0.53 0.53 0.53 0.53 0.53 0.53 0.53 0.53 0.53 0.53 0.53 0.53 0.53 0.53 0.53 0.53 0.53 0.53 0.53 0.53 0.54 0.54 0.54 0.54 0.54 0.54 0.54 0.54 0.54 0.54 0.54 0.54 0.55 0.55 0.55 0.55 0.55 0.55 0.55 0.55 0.55 0.56 0.56 0.56 0.56 0.56 0.56 0.56 0.57 0.57 0.57 0.57 0.57 0.57 0.58 0.58 0.58 0.58 0.58 0.59 0.59 0.59 0.59 0.6 0.6 0.6 0.6 0.6 0.61 0.61 0.61 0.62 0.62 0.62 0.62 0.63 0.63 0.63 0.64 0.64 0.64 0.65 0.65 0.66 0.66 0.66 0.65 0.64 0.64 0.62 0.62 0.62 0.61 0.6 0.59 0.59 0.59 0.58 0.57 0.57 0.56 0.56 0.55 0.55 0.55 0.55 0.54 0.54 0.54 0.54 0.53 0.53 0.53 0.53 0.53 0.52 0.52 0.52 0.52 0.52 0.52 0.51 0.51 0.51 0.51 0.51 0.51 0.5 0.5 0.5 0.5 0.5 0.5 0.5 0.5 0.5 0.49 0.49 0.49 0.49 0.49 0.49 0.49 0.49 0.49 0.49 0.49 0.48 0.48 0.48 0.48 0.48 0.48 0.48 0.48 0.48 0.48 0.48 0.48 0.48 0.48 0.48 0.48 0.48 0.48 0.48 0.48 0.48 0.48 0.48 0.48 0.48 0.48 0.48 0.48 0.48 0.48 0.48 0.48 0.48 0.48 0.48 0.48 0.48 0.48 0.48 0.48 0.48 0.48 0.48 0.48 0.48 0.48 0.48 0.48 0.48 0.48 0.48 0.48 0.48 0.48 0.48 0.48 0.48 0.49 0.49 0.49 0.49 0.49 0.49 0.49 0.49 0.49 0.49 0.49 0.49 0.5 0.5 0.5 0.5 0.5 0.5 0.5 0.5 0.5 0.51 0.51 0.51 0.51 0.51 0.51 0.51 0.52 0.52 0.52 0.52 0.52 0.52 0.53 0.53 0.53 0.53 0.53 0.53 0.54 0.54 0.54 0.54 0.55 0.55 0.55 0.55 0.56 0.56 0.56 0.56 0.57 0.57 0.57 0.57 0.58 0.58 0.58 0.59 0.59 0.59 0.6 0.6 0.61 0.61 0.61 0.62 0.62 0.63 0.63 0.64 0.64 0.64 0.65 0.65 5.770215 5.789992 0.826501 5.770215 5.789992 0.826501 1251717511 chilli 1100
ODOM 5.77 5.79 0.91 1251717511 chilli 1200
TRUEPOS 5.76 5.80 0.86 1251717511 chilli 1200
FLASER 361 0.59 0.59 0.59 0.59 0.58 0.58 0.58 0.58 0.58 0.57 0.57 0.57 0.57 0.57 0.57 0.56 0.56 0.56 0.56 0.56 0.56 0.56 0.55 0.55 0.55 0.55 0.55 0.55 0.55 0.55 0.55 0.55 0.54 0.54 0.54 0.54 0.54 0.54 0.54 0.54 0.54 0.54 0.54 0.54 0.54 0.54 0.54 0.54 0.54 0.54 0.54 0.54 0.53 0.53 0.53 0.53 0.53 0.53 0.53 0.53 0.53 0.53 0.53 0.53 0.53 0.53 0.53 0.53 0.53 0.53 0.54 0.53 0.54 0.54 0.54 0.54 0.54 0.54 0.54 0.54 0.54 0.54 0.54 0.54 0.54 0.54 0.54 0.54 0.54 0.54 0.54 0.55 0.55 0.55 0.55 0.55 0.55 0.55 0.55 0.55 0.55 0.56 0.56 0.56 0.56 0.56 0.56 0.56 0.56 0.56 0.57 0.57 0.57 0.57 0.57 0.57 0.58 0.58 0.58 0.58 0.58 0.58 0.59 0.59 0.59 0.59 0.59 0.6 0.6 0.6 0.6 0.6 0.61 0.61 0.61 0.62 0.62 0.62 0.62 0.62 0.63 0.63 0.63 0.64 0.64 0.64 0.65 0.65 0.65 0.66 0.66 0.66 0.67 0.67 0.67 0.67 0.66 0.65 0.64 0.64 0.63 0.63 0.61 0.61 0.6 0.6 0.6 0.59 0.58 0.58 0.57 0.56 0.56 0.55 0.55 0.54 0.54 0.54 0.53 0.53 0.52 0.52 0.51 0.51 0.51 0.51 0.51 0.5 0.5 0.5 0.5 0.5 0.5 0.49 0.49 0.49 0.49 0.49 0.49 0.49 0.49 0.48 0.48 0.48 0.48 0.48 0.48 0.48 0.48 0.48 0.48 0.48 0.47 0.47 0.47 0.47 0.47 0.47 0.47 0.47 0.47 0.47 0.47 0.47 0.47 0.47 0.47 0.47 0.47 0.47 0.47 0.47 0.47 0.46 0.46 0.46 0.46 0.46 0.46 0.46 0.46 0.46 0.46 0.46 0.46 0.46 0.46 0.46 0.46 0.46 0.46 0.47 0.46 0.47 0.47 0.47 0.47 0.47 0.47 0.47 0.47 0.47 0.47 0.47 0.47 0.47 0.47 0.47 0.47 0.47 0.47 0.47 0.47 0.48 0.48 0.48 0.48 0.48 0.48 0.48 0.48 0.48 0.48 0.48 0.48 0.49 0.49 0.49 0.49 0.49 0.49 0.49 0.49 0.49 0.5 0.5 0.5 0.5 0.5 0.5 0.5 0.51 0.51 0.51 0.51 0.51 0.51 0.52 0.52 0.52 0.52 0.52 0.53 0.53 0.53 0.53 0.53 0.54 0.54 0.54 0.54 0.55 0.55 0.55 0.55 0.56 0.56 0.56 0.56 0.57 0.57 0.57 0.58 0.58 0.58 0.59 0.59 0.59 0.6 0.6 0.61 0.61 0.61 0.62 0.62 0.63 0.63 0.63 0.64 0.65 0.65 0.66 0.66 0.67 0.67 0.68 0.68 0.69 0.7 0.7 0.71 5.770215 5.789992 0.905040 5.770215 5.789992 0.905040 1251717511 chilli 1200
ODOM 5.77 5.79 0.98 1251717511 chilli 1300
TRUEPOS 5.76 5.80 0.94 1251717511 chilli 1300
FLASER 361 0.58 0.57 0.57 0.57 0.57 0.57 0.57 0.56 0.56 0.56 0.56 0.56 0.56 0.56 0.56 0.55 0.55 0.55 0.55 0.55 0.55 0.55 0.55 0.55 0.55 0.55 0.55 0.54 0.54 0.54 0.54 0.54 0.54 0.54 0.54 0.54 0.54 0.54 0.54 0.54 0.54 0.54 0.54 0.54 0.54 0.54 0.54 0.54 0.54 0.54 0.54 0.54 0.54 0.54 0.54 0.54 0.54 0.54 0.54 0.54 0.54 0.54 0.54 0.54 0.54 0.54 0.54 0.54 0.55 0.55 0.55 0.55 0.55 0.55 0.55 0.55 0.55 0.55 0.55 0.55 0.56 0.56 0.56 0.56 0.56 0.56 0.56 0.56 0.56 0.56 0.56 0.57 0.57 0.57 0.57 0.57 0.57 0.57 0.58 0.58 0.58 0.58 0.58 0.58 0.58 0.59 0.59 0.59 0.59 0.59 0.6 0.6 0.6 0.6 0.6 0.61 0.61 0.61 0.61 0.62 0.62 0.62 0.62 0.63 0.63 0.63 0.63 0.64 0.64 0.64 0.65 0.65 0.65 0.66 0.66 0.66 0.66 0.67 0.67 0.68 0.68 0.68 0.69 0.69 0.68 0.67 0.67 0.66 0.65 0.64 0.64 0.63 0.62 0.62 0.61 0.61 0.59 0.59 0.59 0.58 0.58 0.57 0.56 0.56 0.55 0.55 0.55 0.54 0.53 0.53 0.52 0.52 0.52 0.51 0.51 0.5 0.5 0.5 0.49 0.49 0.49 0.48 0.48 0.48 0.48 0.48 0.47 0.47 0.47 0.47 0.47 0.47 0.47 0.47 0.47 0.47 0.46 0.46 0.46 0.46 0.46 0.46 0.46 0.46 0.46 0.46 0.46 0.46 0.46 0.46 0.46 0.45 0.45 0.45 0.45 0.45 0.45 0.45 0.45 0.45 0.45 0.45 0.45 0.45 0.45 0.45 0.45 0.45 0.45 0.45 0.45 0.45 0.45 0.45 0.45 0.45 0.45 0.45 0.45 0.45 0.45 0.45 0.45 0.45 0.45 0.46 0.46 0.46 0.46 0.46 0.46 0.46 0.46 0.46 0.46 0.46 0.46 0.46 0.46 0.46 0.46 0.46 0.46 0.47 0.47 0.47 0.47 0.47 0.47 0.47 0.47 0.47 0.47 0.48 0.48 0.48 0.48 0.48 0.48 0.48 0.48 0.48 0.49 0.49 0.49 0.49 0.49 0.49 0.49 0.5 0.5 0.5 0.5 0.5 0.5 0.51 0.51 0.51 0.51 0.51 0.52 0.52 0.52 0.52 0.52 0.53 0.53 0.53 0.53 0.53 0.54 0.54 0.54 0.55 0.55 0.55 0.55 0.56 0.56 0.56 0.56 0.57 0.57 0.57 0.58 0.58 0.59 0.59 0.59 0.6 0.6 0.6 0.61 0.61 0.62 0.62 0.63 0.63 0.64 0.64 0.65 0.65 0.66 0.66 0.67 0.67 0.68 0.68 0.69 0.7 0.7 0.71 0.72 0.73 0.73 0.74 0.75 0.76 0.77 0.78 0.78 5.770215 5.789992 0.983580 5.770215 5.789992 0.983580 1251717511 chilli 1300
ODOM 5.77 5.79 1.06 1251717511 chilli 1400
TRUEPOS 5.76 5.80 1.02 1251717511 chilli 1400
FLASER 361 0.56 0.56 0.56 0.56 0.56 0.56 0.56 0.56 0.55 0.55 0.55 0.55 0.55 0.55 0.55 0.55 0.55 0.55 0.55 0.55 0.55 0.55 0.54 0.54 0.55 0.55 0.54 0.54 0.54 0.54 0.54 0.54 0.54 0.54 0.54 0.54 0.54 0.54 0.54 0.54 0.54 0.54 0.55 0.55 0.54 0.54 0.55 0.55 0.55 0.55 0.55 0.55 0.55 0.55 0.55 0.55 0.55 0.55 0.55 0.55 0.55 0.55 0.56 0.56 0.56 0.56 0.56 0.56 0.56 0.56 0.56 0.56 0.56 0.57 0.57 0.57 0.57 0.57 0.57 0.57 0.58 0.58 0.58 0.58 0.58 0.58 0.58 0.59 0.59 0.59 0.59 0.59 0.59 0.6 0.6 0.6 0.6 0.6 0.61 0.61 0.61 0.61 0.61 0.62 0.62 0.62 0.62 0.63 0.63 0.63 0.63 0.64 0.64 0.64 0.64 0.65 0.65 0.65 0.66 0.66 0.66 0.66 0.67 0.67 0.68 0.68 0.68 0.69 0.69 0.69 0.7 0.7 0.7 0.69 0.68 0.67 0.67 0.66 0.66 0.65 0.64 0.63 0.63 0.62 0.61 0.61 0.6 0.6 0.59 0.59 0.58 0.58 0.57 0.57 0.56 0.56 0.55 0.54 0.54 0.53 0.53 0.53 0.52 0.52 0.51 0.51 0.51 0.5 0.5 0.5 0.49 0.49 0.48 0.48 0.48 0.47 0.47 0.47 0.46 0.46 0.46 0.45 0.45 0.45 0.45 0.45 0.45 0.45 0.45 0.45 0.45 0.45 0.45 0.44 0.44 0.44 0.44 0.44 0.44 0.44 0.44 0.44 0.44 0.44 0.44 0.44 0.44 0.44 0.44 0.44 0.44 0.44 0.44 0.44 0.44 0.44 0.44 0.44 0.44 0.44 0.44 0.44 0.44 0.44 0.44 0.44 0.44 0.44 0.44 0.44 0.44 0.44 0.44 0.44 0.44 0.44 0.44 0.44 0.45 0.45 0.45 0.45 0.45 0.45 0.45 0.45 0.45 0.45 0.45 0.45 0.45 0.46 0.45 0.46 0.46 0.46 0.46 0.46 0.46 0.46 0.46 0.46 0.46 0.47 0.47 0.47 0.47 0.47 0.47 0.47 0.48 0.48 0.48 0.48 0.48 0.48 0.48 0.49 0.49 0.49 0.49 0.49 0.49 0.5 0.5 0.5 0.5 0.5 0.51 0.51 0.51 0.51 0.51 0.52 0.52 0.52 0.52 0.52 0.53 0.53 0.53 0.53 0.54 0.54 0.54 0.55 0.55 0.55 0.55 0.56 0.56 0.56 0.57 0.57 0.57 0.58 0.58 0.58 0.59 0.59 0.6 0.6 0.6 0.61 0.61 0.62 0.62 0.63 0.63 0.64 0.64 0.65 0.65 0.66 0.66 0.67 0.67 0.68 0.69 0.69 0.7 0.71 0.71 0.72 0.73 0.74 0.74 0.75 0.76 0.77 0.78 0.79 0.8 0.81 0.82 0.83 0.84 0.85 0.86 0.88 0.89 5.770215 5.789992 1.062120 5.770215 5.789992 1.062120 1251717511 chilli 1400
ODOM 5.77 5.79 1.14 1251717512 chilli 1500
TRUEPOS 5.76 5.80 1.10 1251717512 chilli 1500
FLASER 361 0.55 0.55 0.55 0.55 0.55 0.55 0.55 0.55 0.55 0.55 0.55 0.55 0.55 0.55 0.55 0.55 0.55 0.55 0.55 0.55 0.55 0.55 0.55 0.55 0.55 0.55 0.55 0.55 0.55 0.55 0.55 0.55 0.55 0.55 0.55 0.55 0.55 0.55 0.55 0.55 0.55 0.55 0.55 0.56 0.55 0.55 0.56 0.56 0.56 0.56 0.56 0.56 0.56 0.56 0.56 0.56 0.57 0.57 0.57 0.57 0.57 0.57 0.57 0.57 0.58 0.58 0.58 0.58 0.58 0.58 0.58 0.58 0.59 0.59 0.59 0.59 0.59 0.59 0.6 0.6 0.6 0.6 0.6 0.61 0.61 0.61 0.61 0.61 0.62 0.62 0.62 0.62 0.63 0.63 0.63 0.63 0.64 0.64 0.64 0.64 0.65 0.65 0.65 0.66 0.66 0.66 0.66 0.67 0.67 0.67 0.68 0.68 0.69 0.69 0.69 0.69 0.7 0.7 0.71 0.71 0.71 0.71 0.7 0.69 0.69 0.68 0.67 0.67 0.66 0.65 0.64 0.64 0.63 0.62 0.61 0.61 0.61 0.6 0.6 0.59 0.58 0.58 0.57 0.57 0.56 0.56 0.55 0.55 0.54 0.54 0.54 0.53 0.53 0.52 0.52 0.52 0.51 0.5 0.5 0.5 0.5 0.49 0.49 0.48 0.48 0.48 0.48 0.47 0.47 0.47 0.46 0.46 0.46 0.45 0.45 0.45 0.45 0.44 0.44 0.44 0.44 0.43 0.43 0.43 0.43 0.43 0.43 0.43 0.43 0.43 0.43 0.43 0.43 0.43 0.43 0.43 0.43 0.43 0.43 0.43 0.43 0.43 0.43 0.43 0.43 0.43 0.43 0.43 0.43 0.43 0.43 0.43 0.43 0.43 0.43 0.43 0.43 0.43 0.43 0.43 0.43 0.43 0.43 0.43 0.43 0.43 0.43 0.43 0.43 0.43 0.44 0.44 0.44 0.44 0.44 0.44 0.44 0.44 0.44 0.44 0.44 0.44 0.44 0.45 0.45 0.45 0.45 0.45 0.45 0.45 0.45 0.46 0.46 0.46 0.46 0.46 0.46 0.46 0.46 0.47 0.47 0.47 0.47 0.47 0.47 0.47 0.47 0.48 0.48 0.48 0.48 0.48 0.49 0.49 0.49 0.49 0.49 0.5 0.5 0.5 0.5 0.5 0.51 0.51 0.51 0.51 0.52 0.52 0.52 0.52 0.52 0.53 0.53 0.53 0.54 0.54 0.54 0.54 0.55 0.55 0.56 0.56 0.56 0.56 0.57 0.57 0.58 0.58 0.58 0.59 0.59 0.59 0.6 0.6 0.61 0.61 0.62 0.62 0.63 0.63 0.64 0.64 0.65 0.65 0.66 0.66 0.67 0.68 0.68 0.69 0.69 0.7 0.71 0.72 0.72 0.73 0.74 0.75 0.76 0.77 0.77 0.78 0.79 0.81 0.81 0.82 0.83 0.84 0.86 0.87 0.88 0.9 0.91 0.92 0.94 0.95 0.97 0.99 1.0 1.02 1.04 5.770215 5.789992 1.140660 5.770215 5.789992 1.140660 1251717512 chilli 1500
ODOM 5.77 5.79 1.22 1251717512 chilli 1600
TRUEPOS 5.76 5.80 1.18 1251717512 chilli 1600
FLASER 361 0.55 0.55 0.55 0.55 0.55 0.55 0.55 0.55 0.55 0.55 0.55 0.55 0.55 0.55 0.55 0.55 0.55 0.55 0.55 0.55 0.55 0.55 0.55 0.55 0.55 0.55 0.55 0.55 0.56 0.56 0.56 0.56 0.56 0.56 0.56 0.56 0.56 0.56 0.56 0.56 0.57 0.57 0.57 0.57 0.57 0.57 0.57 0.57 0.57 0.58 0.58 0.58 0.58 0.58 0.58 0.58 0.58 0.59 0.59 0.59 0.59 0.59 0.59 0.6 0.6 0.6 0.6 0.6 0.61 0.61 0.61 0.61 0.61 0.62 0.62 0.62 0.62 0.62 0.63 0.63 0.63 0.63 0.64 0.64 0.64 0.64 0.65 0.65 0.65 0.66 0.66 0.66 0.67 0.67 0.67 0.67 0.68 0.68 0.69 0.69 0.69 0.7 0.7 0.71 0.71 0.71 0.72 0.72 0.73 0.73 0.73 0.72 0.7 0.69 0.7 0.69 0.68 0.67 0.66 0.65 0.65 0.64 0.64 0.63 0.62 0.61 0.61 0.61 0.6 0.59 0.59 0.58 0.58 0.57 0.56 0.56 0.56 0.55 0.55 0.55 0.54 0.54 0.53 0.53 0.52 0.52 0.51 0.51 0.51 0.5 0.5 0.5 0.49 0.49 0.49 0.48 0.48 0.47 0.47 0.47 0.47 0.47 0.46 0.46 0.46 0.45 0.45 0.45 0.44 0.44 0.44 0.44 0.44 0.43 0.43 0.43 0.43 0.43 0.42 0.42 0.42 0.42 0.41 0.42 0.41 0.41 0.41 0.41 0.41 0.41 0.41 0.41 0.41 0.41 0.41 0.41 0.41 0.41 0.41 0.42 0.42 0.42 0.42 0.42 0.42 0.42 0.42 0.42 0.42 0.42 0.42 0.42 0.42 0.42 0.42 0.42 0.42 0.42 0.42 0.42 0.43 0.43 0.43 0.43 0.43 0.43 0.43 0.43 0.43 0.43 0.43 0.43 0.44 0.44 0.44 0.44 0.44 0.44 0.44 0.44 0.45 0.44 0.45 0.45 0.45 0.45 0.45 0.45 0.45 0.46 0.46 0.46 0.46 0.46 0.46 0.47 0.47 0.47 0.47 0.47 0.48 0.48 0.48 0.48 0.48 0.48 0.48 0.49 0.49 0.49 0.5 0.5 0.5 0.5 0.5 0.51 0.51 0.51 0.51 0.52 0.52 0.52 0.52 0.53 0.53 0.53 0.54 0.54 0.54 0.55 0.55 0.55 0.56 0.56 0.56 0.56 0.57 0.57 0.58 0.58 0.59 0.59 0.59 0.6 0.6 0.61 0.61 0.62 0.62 0.63 0.63 0.64 0.64 0.65 0.65 0.66 0.67 0.67 0.68 0.68 0.69 0.7 0.7 0.71 0.72 0.73 0.73 0.74 0.75 0.76 0.77 0.78 0.79 0.8 0.81 0.82 0.83 0.84 0.85 0.86 0.88 0.89 0.9 0.92 0.93 0.95 0.96 0.97 1.0 1.01 1.03 1.06 1.07 1.09 1.12 1.14 1.17 1.19 1.21 1.25 1.27 5.770215 5.789992 1.219200 5.770215 5.789992 1.219200 1251717512 chilli 1600
ODOM 5.77 5.79 1.30 1251717512 chilli 1700
TRUEPOS 5.76 5.80 1.26 1251717512 chilli 1700
FLASER 361 0.55 0.55 0.55 0.55 0.55 0.55 0.55 0.55 0.55 0.55 0.55 0.55 0.55 0.56 0.56 0.56 0.56 0.56 0.56 0.56 0.56 0.56 0.56 0.56 0.56 0.56 0.56 0.57 0.57 0.57 0.57 0.57 0.57 0.57 0.57 0.57 0.58 0.58 0.58 0.58 0.58 0.58 0.58 0.59 0.59 0.59 0.59 0.59 0.59 0.59 0.6 0.6 0.6 0.6 0.6 0.61 0.61 0.61 0.61 0.62 0.61 0.62 0.62 0.62 0.63 0.63 0.63 0.63 0.63 0.64 0.64 0.64 0.64 0.65 0.65 0.66 0.66 0.66 0.66 0.67 0.67 0.67 0.67 0.68 0.68 0.68 0.69 0.69 0.7 0.7 0.7 0.71 0.71 0.72 0.72 0.72 0.73 0.73 0.74 0.74 0.73 0.72 0.71 0.7 0.7 0.69 0.68 0.67 0.66 0.66 0.65 0.65 0.64 0.63 0.63 0.62 0.62 0.61 0.6 0.6 0.6 0.59 0.58 0.58 0.57 0.57 0.56 0.56 0.56 0.55 0.54 0.54 0.54 0.53 0.53 0.52 0.52 0.52 0.51 0.51 0.51 0.5 0.5 0.5 0.49 0.49 0.49 0.48 0.48 0.48 0.47 0.47 0.47 0.47 0.46 0.46 0.45 0.45 0.45 0.45 0.45 0.44 0.44 0.44 0.44 0.43 0.43 0.43 0.43 0.43 0.42 0.42 0.42 0.42 0.42 0.41 0.41 0.41 0.41 0.41 0.41 0.4 0.4 0.4 0.4 0.4 0.4 0.4 0.4 0.4 0.4 0.41 0.4 0.4 0.41 0.41 0.41 0.41 0.41 0.41 0.41 0.41 0.41 0.41 0.41 0.41 0.41 0.41 0.41 0.41 0.42 0.42 0.42 0.42 0.42 0.42 0.42 0.42 0.42 0.42 0.42 0.43 0.43 0.43 0.43 0.43 0.43 0.43 0.43 0.43 0.44 0.44 0.44 0.44 0.44 0.44 0.44 0.44 0.45 0.45 0.45 0.45 0.45 0.45 0.46 0.46 0.46 0.46 0.46 0.46 0.47 0.47 0.47 0.47 0.47 0.48 0.48 0.48 0.48 0.48 0.49 0.49 0.49 0.49 0.5 0.5 0.5 0.5 0.51 0.51 0.51 0.51 0.52 0.52 0.52 0.53 0.53 0.53 0.54 0.54 0.54 0.54 0.55 0.55 0.56 0.56 0.56 0.57 0.57 0.58 0.58 0.58 0.59 0.59 0.6 0.6 0.6 0.61 0.62 0.62 0.63 0.63 0.64 0.64 0.65 0.65 0.66 0.67 0.67 0.68 0.68 0.69 0.7 0.71 0.72 0.72 0.73 0.73 0.74 0.75 0.76 0.77 0.78 0.79 0.8 0.81 0.82 0.83 0.84 0.86 0.87 0.88 0.89 0.9 0.92 0.93 0.95 0.97 0.99 1.0 1.02 1.04 1.05 1.09 1.1 1.12 1.14 1.16 1.2 1.23 1.25 1.29 1.32 1.35 1.39 1.42 1.48 1.51 1.55 1.61 1.65 5.770220 5.790010 1.297855 5.770220 5.790010 1.297855 1251717512 chilli 1700
ODOM 5.77 5.79 1.38 1251717512 chilli 1800
TRUEPOS 5.76 5.80 1.34 1251717512 chilli 1800
FLASER 361 0.56 0.55 0.56 0.56 0.56 0.56 0.56 0.56 0.56 0.56 0.56 0.56 0.56 0.56 0.56 0.56 0.57 0.57 0.57 0.57 0.57 0.57 0.57 0.57 0.58 0.58 0.58 0.58 0.58 0.58 0.58 0.59 0.59 0.59 0.59 0.59 0.59 0.6 0.6 0.6 0.6 0.6 0.61 0.61 0.61 0.61 0.61 0.61 0.62 0.62 0.62 0.62 0.63 0.63 0.63 0.63 0.64 0.64 0.64 0.65 0.64 0.65 0.65 0.66 0.66 0.66 0.66 0.67 0.67 0.67 0.68 0.68 0.68 0.69 0.69 0.7 0.7 0.7 0.7 0.71 0.72 0.71 0.72 0.73 0.73 0.73 0.74 0.74 0.75 0.74 0.74 0.73 0.72 0.71 0.7 0.7 0.69 0.68 0.67 0.67 0.66 0.65 0.64 0.64 0.64 0.63 0.62 0.61 0.61 0.61 0.6 0.59 0.59 0.58 0.58 0.58 0.57 0.56 0.56 0.55 0.55 0.55 0.54 0.54 0.53 0.53 0.52 0.53 0.52 0.52 0.51 0.51 0.5 0.5 0.5 0.49 0.49 0.49 0.49 0.48 0.48 0.48 0.47 0.47 0.47 0.47 0.46 0.46 0.46 0.46 0.45 0.45 0.45 0.45 0.45 0.44 0.44 0.44 0.43 0.43 0.43 0.43 0.43 0.42 0.42 0.42 0.42 0.42 0.42 0.41 0.41 0.41 0.41 0.41 0.41 0.4 0.4 0.4 0.4 0.4 0.4 0.4 0.4 0.4 0.4 0.4 0.4 0.4 0.4 0.4 0.4 0.4 0.4 0.4 0.4 0.4 0.4 0.4 0.4 0.41 0.41 0.41 0.41 0.41 0.41 0.41 0.41 0.41 0.41 0.41 0.41 0.42 0.42 0.42 0.42 0.42 0.42 0.42 0.42 0.43 0.43 0.43 0.43 0.43 0.43 0.43 0.43 0.44 0.44 0.44 0.44 0.44 0.44 0.45 0.45 0.45 0.45 0.45 0.45 0.46 0.46 0.46 0.46 0.46 0.47 0.47 0.47 0.47 0.47 0.48 0.48 0.48 0.48 0.49 0.49 0.49 0.5 0.5 0.5 0.5 0.51 0.51 0.51 0.51 0.52 0.52 0.52 0.52 0.53 0.53 0.54 0.54 0.54 0.55 0.55 0.56 0.56 0.56 0.57 0.57 0.57 0.58 0.58 0.59 0.59 0.59 0.6 0.6 0.61 0.62 0.62 0.62 0.63 0.64 0.64 0.64 0.65 0.66 0.67 0.67 0.68 0.68 0.69 0.7 0.71 0.72 0.72 0.73 0.73 0.74 0.75 0.76 0.77 0.78 0.79 0.81 0.82 0.82 0.83 0.84 0.86 0.87 0.88 0.9 0.91 0.92 0.94 0.95 0.97 0.99 1.0 1.02 1.04 1.06 1.08 1.1 1.12 1.16 1.18 1.21 1.23 1.26 1.28 1.33 1.36 1.39 1.43 1.46 1.53 1.56 1.6 1.68 1.73 1.77 1.87 1.92 2.03 2.1 2.16 2.3 2.38 5.770220 5.790010 1.376395 5.770220 5.790010 1.376395 1251717512 chilli 1800
ODOM 5.77 5.79 1.45 1251717512 chilli 1900
TRUEPOS 5.76 5.80 1.42 1251717512 chilli 1900
FLASER 361 0.56 0.56 0.56 0.56 0.56 0.57 0.57 0.57 0.57 0.57 0.57 0.57 0.57 0.58 0.58 0.58 0.58 0.58 0.58 0.58 0.58 0.59 0.59 0.59 0.59 0.59 0.6 0.6 0.6 0.6 0.6 0.6 0.61 0.61 0.61 0.61 0.62 0.62 0.62 0.62 0.63 0.63 0.63 0.63 0.63 0.63 0.64 0.64 0.64 0.65 0.65 0.65 0.66 0.66 0.66 0.66 0.67 0.67 0.68 0.68 0.68 0.68 0.69 0.69 0.7 0.7 0.7 0.71 0.71 0.72 0.72 0.72 0.73 0.73 0.74 0.74 0.74 0.75 0.76 0.75 0.74 0.74 0.73 0.72 0.71 0.71 0.7 0.69 0.68 0.67 0.67 0.66 0.65 0.64 0.64 0.64 0.63 0.62 0.61 0.61 0.61 0.6 0.59 0.59 0.59 0.58 0.58 0.57 0.56 0.57 0.56 0.55 0.55 0.54 0.54 0.54 0.53 0.53 0.53 0.52 0.52 0.52 0.51 0.51 0.5 0.5 0.5 0.5 0.49 0.49 0.49 0.48 0.48 0.48 0.47 0.47 0.47 0.47 0.47 0.46 0.46 0.46 0.46 0.45 0.45 0.45 0.45 0.44 0.44 0.44 0.44 0.44 0.43 0.43 0.43 0.43 0.43 0.42 0.42 0.42 0.42 0.42 0.41 0.41 0.41 0.41 0.41 0.41 0.41 0.41 0.4 0.4 0.4 0.4 0.4 0.4 0.4 0.4 0.39 0.39 0.39 0.39 0.39 0.39 0.39 0.39 0.39 0.39 0.4 0.4 0.4 0.4 0.4 0.4 0.4 0.4 0.4 0.4 0.4 0.41 0.41 0.41 0.41 0.41 0.41 0.41 0.41 0.41 0.42 0.42 0.42 0.42 0.42 0.42 0.42 0.42 0.43 0.43 0.43 0.43 0.43 0.43 0.44 0.44 0.44 0.44 0.44 0.44 0.45 0.45 0.45 0.45 0.46 0.46 0.46 0.46 0.46 0.46 0.47 0.47 0.47 0.47 0.48 0.48 0.48 0.48 0.49 0.49 0.49 0.49 0.5 0.5 0.5 0.51 0.51 0.51 0.52 0.52 0.52 0.53 0.53 0.53 0.53 0.54 0.54 0.55 0.55 0.55 0.56 0.56 0.57 0.57 0.57 0.58 0.59 0.59 0.59 0.6 0.6 0.61 0.61 0.62 0.62 0.63 0.64 0.64 0.64 0.65 0.66 0.67 0.67 0.68 0.68 0.69 0.7 0.7 0.71 0.72 0.73 0.74 0.75 0.75 0.76 0.77 0.78 0.8 0.81 0.82 0.82 0.83 0.85 0.86 0.87 0.89 0.9 0.92 0.94 0.94 0.95 0.97 0.99 1.01 1.03 1.05 1.07 1.09 1.11 1.13 1.16 1.18 1.21 1.23 1.26 1.29 1.32 1.35 1.39 1.45 1.49 1.53 1.57 1.61 1.66 1.75 1.81 1.86 1.92 1.99 2.12 2.19 2.28 2.44 2.54 2.65 2.88 3.01 3.3 3.48 3.67 4.1 4.36 5.770220 5.790010 1.454935 5.770220 5.790010 1.454935 1251717512 chilli 1900
ODOM 5.77 5.79 1.53 1251717512 chilli 2000
TRUEPOS 5.76 5.80 1.49 1251717512 chilli 2000
FLASER 361 0.57 0.57 0.58 0.58 0.57 0.58 0.58 0.58 0.58 0.58 0.59 0.59 0.59 0.59 0.59 0.59 0.59 0.6 0.6 0.6 0.6 0.61 0.61 0.61 0.61 0.62 0.62 0.62 0.62 0.62 0.63 0.63 0.63 0.63 0.64 0.64 0.64 0.64 0.65 0.65 0.65 0.66 0.66 0.66 0.66 0.67 0.67 0.67 0.68 0.68 0.69 0.69 0.7 0.69 0.7 0.7 0.71 0.71 0.72 0.72 0.72 0.73 0.73 0.74 0.74 0.75 0.75 0.76 0.76 0.76 0.75 0.74 0.73 0.72 0.71 0.7 0.7 0.69 0.69 0.68 0.67 0.67 0.66 0.65 0.64 0.64 0.64 0.63 0.62 0.62 0.62 0.61 0.6 0.6 0.59 0.59 0.58 0.58 0.57 0.57 0.57 0.56 0.56 0.55 0.55 0.55 0.54 0.54 0.53 0.53 0.53 0.52 0.52 0.51 0.51 0.51 0.51 0.5 0.5 0.5 0.5 0.49 0.49 0.49 0.48 0.48 0.48 0.48 0.47 0.47 0.47 0.46 0.46 0.46 0.46 0.45 0.46 0.45 0.45 0.45 0.45 0.44 0.44 0.44 0.44 0.44 0.43 0.43 0.43 0.43 0.43 0.43 0.42 0.42 0.42 0.42 0.42 0.42 0.41 0.41 0.41 0.41 0.41 0.41 0.41 0.41 0.41 0.4 0.4 0.4 0.4 0.4 0.4 0.4 0.4 0.39 0.39 0.39 0.39 0.39 0.39 0.39 0.39 0.39 0.39 0.39 0.39 0.39 0.4 0.4 0.4 0.4 0.4 0.4 0.4 0.4 0.4 0.4 0.41 0.41 0.41 0.41 0.41 0.41 0.41 0.42 0.42 0.42 0.42 0.42 0.42 0.43 0.43 0.43 0.43 0.43 0.43 0.44 0.44 0.44 0.44 0.45 0.45 0.45 0.45 0.45 0.45 0.46 0.46 0.46 0.46 0.47 0.47 0.47 0.47 0.47 0.48 0.48 0.48 0.49 0.49 0.49 0.49 0.5 0.5 0.51 0.51 0.51 0.51 0.52 0.52 0.53 0.53 0.53 0.54 0.54 0.55 0.54 0.55 0.56 0.56 0.57 0.57 0.57 0.58 0.58 0.58 0.59 0.6 0.6 0.61 0.61 0.62 0.62 0.63 0.64 0.64 0.64 0.65 0.66 0.66 0.67 0.68 0.69 0.7 0.7 0.71 0.72 0.73 0.74 0.74 0.75 0.76 0.77 0.78 0.78 0.79 0.81 0.82 0.83 0.85 0.85 0.86 0.88 0.89 0.91 0.92 0.94 0.94 0.96 0.98 1.0 1.02 1.04 1.06 1.08 1.1 1.11 1.13 1.16 1.18 1.21 1.24 1.27 1.3 1.33 1.37 1.41 1.44 1.48 1.53 1.57 1.62 1.67 1.72 1.78 1.84 1.96 2.04 2.12 2.2 2.29 2.39 2.59 2.71 2.85 3.0 3.16 3.52 3.74 3.98 4.56 4.92 5.3 5.27 5.27 5.24 5.24 5.24 5.22 5.22 5.770220 5.790010 1.533475 5.770220 5.790010 1.533475 1251717512 chilli 2000
ODOM 5.77 5.79 1.61 1251717512 chilli 2100
TRUEPOS 5.76 5.80 1.57 1251717512 chilli 2100
FLASER 361 0.59 0.59 0.59 0.59 0.59 0.59 0.59 0.6 0.6 0.6 0.6 0.61 0.61 0.61 0.61 0.61 0.62 0.62 0.62 0.62 0.63 0.63 0.63 0.63 0.64 0.64 0.64 0.65 0.65 0.65 0.65 0.66 0.66 0.66 0.67 0.67 0.67 0.68 0.68 0.69 0.69 0.69 0.7 0.7 0.7 0.7 0.71 0.71 0.72 0.72 0.73 0.73 0.74 0.74 0.74 0.75 0.75 0.76 0.77 0.76 0.76 0.75 0.74 0.73 0.72 0.71 0.71 0.7 0.69 0.68 0.68 0.67 0.67 0.66 0.65 0.64 0.64 0.64 0.63 0.62 0.62 0.62 0.61 0.6 0.6 0.6 0.59 0.58 0.58 0.57 0.57 0.57 0.56 0.56 0.55 0.55 0.55 0.54 0.54 0.54 0.53 0.53 0.52 0.52 0.52 0.52 0.51 0.51 0.51 0.51 0.5 0.5 0.49 0.49 0.49 0.49 0.49 0.48 0.48 0.48 0.48 0.47 0.47 0.47 0.47 0.46 0.46 0.46 0.46 0.46 0.45 0.45 0.45 0.45 0.44 0.44 0.44 0.44 0.44 0.44 0.44 0.43 0.43 0.43 0.43 0.43 0.43 0.42 0.42 0.42 0.42 0.42 0.42 0.42 0.42 0.41 0.41 0.41 0.41 0.41 0.41 0.41 0.4 0.4 0.4 0.4 0.4 0.4 0.4 0.4 0.4 0.4 0.4 0.4 0.4 0.39 0.39 0.39 0.39 0.39 0.39 0.39 0.39 0.39 0.39 0.39 0.4 0.4 0.4 0.4 0.4 0.4 0.4 0.4 0.41 0.41 0.41 0.41 0.41 0.42 0.42 0.42 0.42 0.42 0.42 0.43 0.43 0.43 0.43 0.43 0.43 0.44 0.44 0.44 0.44 0.45 0.45 0.45 0.45 0.45 0.46 0.46 0.46 0.47 0.47 0.47 0.47 0.47 0.48 0.48 0.48 0.49 0.49 0.49 0.49 0.5 0.5 0.5 0.51 0.51 0.52 0.52 0.52 0.52 0.53 0.53 0.54 0.54 0.54 0.55 0.55 0.56 0.56 0.56 0.57 0.58 0.58 0.58 0.59 0.59 0.6 0.61 0.61 0.61 0.62 0.63 0.63 0.64 0.64 0.65 0.66 0.66 0.67 0.68 0.69 0.7 0.7 0.71 0.72 0.73 0.73 0.74 0.75 0.76 0.77 0.77 0.79 0.8 0.81 0.83 0.83 0.84 0.86 0.87 0.89 0.89 0.9 0.92 0.94 0.96 0.98 0.98 1.0 1.02 1.04 1.06 1.09 1.11 1.11 1.14 1.17 1.2 1.23 1.26 1.29 1.32 1.36 1.36 1.4 1.44 1.49 1.53 1.58 1.63 1.69 1.75 1.81 1.87 1.95 2.02 2.11 2.19 2.29 2.4 2.51 2.64 2.77 3.08 3.27 3.48 3.72 3.99 4.3 5.05 5.37 5.36 5.35 5.35 5.32 5.31 5.31 5.28 5.28 5.28 5.25 5.25 5.23 5.23 5.23 5.21 5.22 5.770220 5.790010 1.612014 5.770220 5.790010 1.612014 1251717512 chilli 2100
ODOM 5.77 5.79 1.69 1251717513 chilli 2200
TRUEPOS 5.76 5.80 1.65 1251717513 chilli 2200
FLASER 361 0.6 0.6 0.61 0.61 0.61 0.61 0.61 0.62 0.62 0.62 0.63 0.63 0.63 0.64 0.64 0.64 0.64 0.64 0.65 0.65 0.65 0.66 0.66 0.66 0.67 0.67 0.68 0.68 0.68 0.68 0.69 0.69 0.7 0.7 0.7 0.71 0.71 0.72 0.72 0.73 0.73 0.74 0.74 0.75 0.74 0.75 0.75 0.76 0.77 0.77 0.76 0.75 0.74 0.74 0.73 0.72 0.71 0.7 0.7 0.69 0.69 0.68 0.67 0.66 0.66 0.65 0.65 0.64 0.64 0.63 0.62 0.62 0.62 0.61 0.6 0.6 0.6 0.59 0.59 0.58 0.57 0.57 0.57 0.56 0.56 0.56 0.55 0.55 0.55 0.54 0.54 0.54 0.53 0.53 0.52 0.52 0.52 0.52 0.51 0.51 0.51 0.51 0.5 0.5 0.5 0.5 0.49 0.49 0.49 0.49 0.48 0.48 0.48 0.47 0.47 0.47 0.47 0.47 0.46 0.46 0.46 0.46 0.46 0.45 0.45 0.45 0.45 0.45 0.45 0.45 0.44 0.44 0.44 0.44 0.44 0.43 0.44 0.43 0.43 0.43 0.43 0.43 0.43 0.42 0.42 0.42 0.42 0.42 0.42 0.42 0.42 0.42 0.41 0.41 0.41 0.41 0.41 0.41 0.41 0.41 0.41 0.41 0.4 0.4 0.4 0.4 0.4 0.4 0.4 0.4 0.4 0.4 0.4 0.4 0.4 0.4 0.4 0.4 0.4 0.4 0.4 0.4 0.4 0.4 0.4 0.4 0.4 0.4 0.41 0.41 0.41 0.41 0.41 0.41 0.42 0.42 0.42 0.42 0.42 0.43 0.43 0.43 0.43 0.43 0.43 0.44 0.44 0.44 0.45 0.45 0.45 0.45 0.45 0.46 0.46 0.46 0.46 0.47 0.47 0.47 0.48 0.48 0.48 0.49 0.49 0.49 0.49 0.5 0.5 0.5 0.51 0.51 0.52 0.52 0.52 0.52 0.53 0.53 0.54 0.54 0.55 0.55 0.55 0.56 0.56 0.57 0.58 0.57 0.58 0.59 0.59 0.6 0.6 0.61 0.61 0.62 0.63 0.63 0.64 0.64 0.65 0.66 0.66 0.67 0.68 0.69 0.69 0.7 0.71 0.72 0.73 0.73 0.74 0.75 0.76 0.78 0.78 0.79 0.8 0.82 0.82 0.83 0.85 0.86 0.88 0.88 0.89 0.91 0.93 0.95 0.95 0.97 0.99 1.01 1.03 1.04 1.06 1.08 1.11 1.14 1.16 1.17 1.2 1.23 1.26 1.3 1.33 1.37 1.37 1.42 1.46 1.51 1.56 1.61 1.66 1.72 1.79 1.79 1.86 1.94 2.02 2.11 2.2 2.31 2.42 2.55 2.69 2.84 3.01 3.21 3.42 3.67 3.96 4.29 4.68 5.15 5.45 5.41 5.4 5.4 5.39 5.38 5.38 5.34 5.34 5.34 5.33 5.33 5.3 5.3 5.3 5.28 5.28 5.28 5.26 5.26 5.24 5.25 5.26 5.24 5.25 5.770220 5.790010 1.690554 5.770220 5.790010 1.690554 1251717513 chilli 2200
ODOM 5.77 5.79 1.77 1251717513 chilli 2300
TRUEPOS 5.76 5.80 1.72 1251717513 chilli 2300
FLASER 361 0.63 0.63 0.63 0.63 0.63 0.64 0.64 0.64 0.65 0.65 0.65 0.65 0.66 0.66 0.67 0.67 0.67 0.67 0.68 0.68 0.69 0.69 0.69 0.7 0.7 0.71 0.71 0.72 0.72 0.72 0.73 0.73 0.74 0.74 0.75 0.75 0.76 0.76 0.77 0.77 0.77 0.76 0.75 0.74 0.74 0.73 0.72 0.71 0.7 0.7 0.69 0.68 0.67 0.67 0.67 0.66 0.65 0.65 0.64 0.63 0.63 0.63 0.62 0.61 0.61 0.6 0.6 0.6 0.59 0.59 0.58 0.58 0.58 0.57 0.57 0.56 0.56 0.56 0.55 0.55 0.54 0.54 0.54 0.54 0.53 0.53 0.53 0.52 0.52 0.52 0.52 0.51 0.51 0.51 0.5 0.5 0.5 0.5 0.49 0.49 0.49 0.49 0.48 0.48 0.48 0.48 0.48 0.47 0.47 0.47 0.47 0.47 0.46 0.46 0.46 0.46 0.46 0.46 0.45 0.45 0.45 0.45 0.45 0.45 0.44 0.44 0.44 0.44 0.44 0.44 0.44 0.44 0.43 0.43 0.43 0.43 0.43 0.43 0.43 0.43 0.43 0.42 0.42 0.42 0.42 0.42 0.42 0.42 0.42 0.42 0.42 0.42 0.42 0.41 0.41 0.41 0.41 0.41 0.41 0.41 0.41 0.41 0.41 0.41 0.41 0.41 0.41 0.41 0.41 0.41 0.4 0.41 0.41 0.4 0.4 0.4 0.4 0.4 0.4 0.4 0.4 0.4 0.4 0.41 0.41 0.41 0.41 0.41 0.42 0.42 0.42 0.42 0.42 0.42 0.43 0.43 0.43 0.43 0.44 0.44 0.44 0.44 0.45 0.45 0.45 0.46 0.46 0.46 0.46 0.47 0.47 0.47 0.47 0.48 0.48 0.48 0.49 0.49 0.49 0.5 0.5 0.5 0.51 0.51 0.52 0.52 0.52 0.52 0.53 0.53 0.54 0.54 0.55 0.55 0.55 0.56 0.56 0.57 0.58 0.58 0.59 0.59 0.59 0.6 0.61 0.61 0.62 0.62 0.63 0.64 0.64 0.65 0.65 0.66 0.67 0.68 0.69 0.69 0.7 0.71 0.72 0.73 0.73 0.74 0.75 0.77 0.77 0.78 0.79 0.81 0.82 0.82 0.83 0.85 0.87 0.88 0.88 0.9 0.92 0.94 0.94 0.96 0.98 1.0 1.02 1.02 1.05 1.07 1.1 1.12 1.13 1.15 1.18 1.22 1.25 1.25 1.29 1.33 1.37 1.41 1.45 1.46 1.5 1.56 1.61 1.67 1.74 1.8 1.81 1.88 1.96 2.05 2.15 2.25 2.37 2.49 2.63 2.64 2.8 2.98 3.18 3.4 3.67 3.97 4.33 4.76 5.27 5.5 5.49 5.48 5.47 5.46 5.45 5.45 5.44 5.43 5.43 5.39 5.39 5.38 5.38 5.38 5.37 5.35 5.35 5.34 5.35 5.35 5.32 5.33 5.33 5.31 5.31 5.32 5.3 5.31 5.29 5.3 5.31 5.3 5.31 5.770220 5.790010 1.769094 5.770220 5.790010 1.769094 1251717513 chilli 2300
ODOM 5.77 5.79 1.85 1251717513 chilli 2400
TRUEPOS 5.76 5.80 1.80 1251717513 chilli 2400
FLASER 361 0.65 0.65 0.66 0.66 0.66 0.67 0.67 0.67 0.68 0.68 0.68 0.69 0.69 0.7 0.7 0.7 0.71 0.71 0.72 0.72 0.72 0.73 0.73 0.74 0.75 0.75 0.76 0.76 0.77 0.77 0.77 0.76 0.76 0.75 0.74 0.73 0.72 0.72 0.71 0.7 0.69 0.69 0.68 0.67 0.67 0.67 0.66 0.65 0.65 0.64 0.63 0.63 0.62 0.62 0.62 0.61 0.61 0.6 0.6 0.59 0.59 0.59 0.58 0.58 0.57 0.57 0.57 0.56 0.56 0.55 0.55 0.55 0.55 0.54 0.54 0.53 0.53 0.53 0.53 0.52 0.52 0.52 0.52 0.51 0.51 0.51 0.51 0.5 0.5 0.5 0.5 0.49 0.49 0.49 0.49 0.49 0.48 0.48 0.48 0.48 0.48 0.47 0.47 0.47 0.47 0.47 0.47 0.46 0.46 0.46 0.46 0.46 0.46 0.45 0.45 0.45 0.45 0.45 0.45 0.45 0.45 0.44 0.44 0.44 0.44 0.44 0.44 0.44 0.44 0.44 0.43 0.43 0.43 0.43 0.43 0.43 0.43 0.43 0.43 0.43 0.43 0.43 0.42 0.42 0.42 0.42 0.42 0.42 0.42 0.42 0.42 0.42 0.42 0.42 0.42 0.42 0.42 0.42 0.42 0.42 0.42 0.42 0.41 0.41 0.41 0.41 0.42 0.41 0.41 0.41 0.41 0.41 0.41 0.41 0.41 0.41 0.41 0.42 0.41 0.42 0.42 0.42 0.42 0.42 0.42 0.42 0.43 0.43 0.43 0.43 0.43 0.44 0.44 0.44 0.45 0.45 0.45 0.45 0.45 0.46 0.46 0.46 0.47 0.47 0.47 0.48 0.48 0.48 0.49 0.49 0.49 0.5 0.5 0.5 0.51 0.51 0.52 0.52 0.52 0.53 0.53 0.54 0.54 0.55 0.55 0.55 0.56 0.56 0.57 0.57 0.58 0.58 0.59 0.6 0.6 0.6 0.61 0.62 0.62 0.63 0.64 0.64 0.65 0.65 0.66 0.67 0.68 0.68 0.69 0.7 0.71 0.72 0.72 0.73 0.74 0.76 0.77 0.77 0.78 0.79 0.81 0.82 0.82 0.84 0.85 0.87 0.87 0.89 0.9 0.92 0.94 0.94 0.96 0.98 1.01 1.03 1.03 1.05 1.08 1.11 1.11 1.14 1.17 1.2 1.23 1.23 1.27 1.31 1.35 1.39 1.39 1.44 1.49 1.54 1.59 1.6 1.66 1.72 1.79 1.87 1.95 1.95 2.04 2.14 2.25 2.37 2.5 2.65 2.66 2.82 3.01 3.23 3.48 3.77 4.11 4.51 5.01 5.02 5.57 5.56 5.55 5.53 5.52 5.51 5.5 5.5 5.49 5.48 5.47 5.46 5.46 5.45 5.45 5.44 5.44 5.43 5.43 5.4 5.4 5.4 5.4 5.4 5.4 5.38 5.38 5.38 5.39 5.39 5.37 5.38 5.38 5.37 5.38 3.05 2.88 2.81 2.74 2.74 2.75 2.75 2.75 5.770220 5.790010 1.847634 5.770220 5.790010 1.847634 1251717513 chilli 2400
ODOM 5.77 5.79 1.93 1251717513 chilli 2500
TRUEPOS 5.76 5.80 1.88 1251717513 chilli 2500
FLASER 361 0.68 0.68 0.69 0.69 0.69 0.7 0.7 0.71 0.71 0.71 0.72 0.72 0.73 0.74 0.74 0.74 0.75 0.75 0.76 0.77 0.77 0.77 0.76 0.76 0.74 0.74 0.73 0.72 0.71 0.71 0.7 0.69 0.69 0.68 0.67 0.67 0.66 0.66 0.65 0.64 0.64 0.63 0.63 0.62 0.62 0.62 0.61 0.61 0.6 0.6 0.59 0.59 0.58 0.58 0.58 0.57 0.57 0.57 0.56 0.56 0.56 0.55 0.55 0.55 0.54 0.54 0.54 0.54 0.53 0.53 0.53 0.53 0.52 0.52 0.52 0.51 0.51 0.51 0.51 0.5 0.5 0.5 0.5 0.5 0.49 0.49 0.49 0.49 0.49 0.48 0.48 0.48 0.48 0.48 0.48 0.48 0.47 0.47 0.47 0.47 0.47 0.47 0.46 0.46 0.46 0.46 0.46 0.46 0.46 0.46 0.45 0.45 0.45 0.45 0.45 0.45 0.45 0.45 0.44 0.44 0.44 0.44 0.44 0.44 0.44 0.44 0.44 0.44 0.44 0.44 0.44 0.43 0.43 0.43 0.43 0.43 0.43 0.43 0.43 0.43 0.43 0.43 0.43 0.43 0.43 0.43 0.43 0.43 0.43 0.43 0.43 0.43 0.43 0.43 0.43 0.43 0.42 0.42 0.42 0.42 0.43 0.43 0.42 0.42 0.43 0.43 0.43 0.43 0.43 0.43 0.43 0.43 0.43 0.43 0.43 0.43 0.43 0.43 0.43 0.43 0.43 0.43 0.43 0.44 0.44 0.44 0.44 0.45 0.45 0.45 0.45 0.46 0.46 0.46 0.47 0.47 0.47 0.47 0.48 0.48 0.49 0.49 0.49 0.5 0.5 0.51 0.51 0.51 0.52 0.52 0.52 0.53 0.53 0.54 0.54 0.55 0.55 0.56 0.56 0.57 0.57 0.58 0.58 0.59 0.6 0.59 0.6 0.61 0.61 0.62 0.63 0.64 0.64 0.65 0.65 0.66 0.67 0.68 0.69 0.7 0.71 0.7 0.72 0.73 0.74 0.75 0.76 0.76 0.77 0.79 0.8 0.81 0.81 0.83 0.84 0.86 0.87 0.87 0.89 0.91 0.93 0.95 0.95 0.97 0.99 1.01 1.01 1.04 1.06 1.09 1.12 1.12 1.14 1.18 1.21 1.24 1.24 1.28 1.32 1.36 1.36 1.41 1.45 1.51 1.56 1.56 1.62 1.68 1.75 1.83 1.83 1.91 2.0 2.1 2.2 2.21 2.33 2.46 2.61 2.77 2.96 2.97 3.18 3.44 3.73 4.07 4.49 5.0 5.01 5.61 5.6 5.59 5.58 5.57 5.56 5.55 5.54 5.55 5.54 5.53 5.53 5.52 5.51 5.51 5.5 5.49 5.49 5.49 5.48 5.48 5.47 5.47 5.47 5.47 5.47 5.47 5.47 5.45 5.45 5.45 5.46 5.46 5.46 5.45 3.06 2.97 2.88 2.8 2.78 2.78 2.79 2.78 2.79 2.79 2.79 2.8 2.79 2.8 2.81 2.81 2.81 5.770220 5.790010 1.926174 5.770220 5.790010 1.926174 1251717513 chilli 2500
ODOM 5.77 5.79 2.00 1251717513 chilli 2600
TRUEPOS 5.76 5.80 1.95 1251717513 chilli 2600
FLASER 361 0.72 0.72 0.73 0.73 0.73 0.74 0.74 0.75 0.75 0.76 0.77 0.77 0.77 0.76 0.75 0.74 0.74 0.73 0.72 0.71 0.71 0.7 0.69 0.69 0.68 0.67 0.67 0.66 0.66 0.65 0.65 0.64 0.63 0.63 0.63 0.62 0.62 0.61 0.61 0.6 0.6 0.59 0.59 0.59 0.58 0.58 0.58 0.57 0.57 0.57 0.56 0.56 0.55 0.55 0.55 0.55 0.54 0.54 0.54 0.53 0.53 0.53 0.53 0.53 0.52 0.52 0.52 0.52 0.51 0.51 0.51 0.51 0.51 0.5 0.5 0.5 0.5 0.5 0.49 0.49 0.49 0.49 0.49 0.49 0.48 0.48 0.48 0.48 0.48 0.48 0.48 0.47 0.47 0.47 0.47 0.47 0.47 0.47 0.46 0.46 0.46 0.46 0.46 0.46 0.46 0.46 0.46 0.45 0.45 0.45 0.45 0.45 0.45 0.45 0.45 0.45 0.45 0.45 0.45 0.44 0.45 0.44 0.44 0.44 0.44 0.44 0.44 0.44 0.44 0.44 0.44 0.44 0.44 0.44 0.44 0.44 0.44 0.44 0.44 0.44 0.44 0.44 0.44 0.44 0.44 0.44 0.44 0.44 0.44 0.44 0.44 0.44 0.44 0.44 0.44 0.44 0.44 0.44 0.44 0.44 0.44 0.44 0.44 0.44 0.44 0.44 0.44 0.44 0.44 0.44 0.44 0.44 0.44 0.44 0.45 0.45 0.45 0.45 0.45 0.45 0.45 0.45 0.45 0.46 0.46 0.46 0.47 0.47 0.47 0.48 0.48 0.48 0.49 0.49 0.5 0.5 0.5 0.5 0.51 0.51 0.52 0.52 0.52 0.53 0.53 0.54 0.55 0.55 0.56 0.56 0.56 0.57 0.57 0.58 0.59 0.59 0.6 0.6 0.61 0.62 0.62 0.63 0.64 0.64 0.65 0.65 0.66 0.67 0.68 0.68 0.69 0.7 0.71 0.72 0.72 0.73 0.74 0.76 0.77 0.78 0.79 0.79 0.8 0.82 0.83 0.85 0.86 0.86 0.88 0.9 0.92 0.93 0.93 0.95 0.97 1.0 1.02 1.02 1.04 1.07 1.09 1.12 1.12 1.15 1.18 1.22 1.22 1.25 1.29 1.33 1.37 1.37 1.42 1.47 1.52 1.58 1.58 1.64 1.7 1.77 1.78 1.85 1.94 2.03 2.13 2.13 2.25 2.37 2.51 2.67 2.68 2.86 3.06 3.3 3.57 3.58 3.91 4.3 4.77 5.37 5.64 5.64 5.63 5.62 5.61 5.6 5.59 5.58 5.59 5.59 5.58 5.57 5.56 5.56 5.55 5.54 5.54 5.55 5.55 5.54 5.54 5.54 5.53 5.53 5.53 5.53 5.53 5.52 5.52 5.52 5.53 5.53 5.53 5.53 5.53 3.2 3.09 2.88 2.81 2.81 2.81 2.82 2.82 2.82 2.82 2.83 2.83 2.84 2.83 2.84 2.85 2.84 2.85 2.86 2.86 2.87 2.87 2.88 2.88 2.89 2.9 5.770220 5.790010 2.004713 5.770220 5.790010 2.004713 1251717513 chilli 2600
ODOM 5.77 5.79 2.08 1251717513 chilli 2700
TRUEPOS 5.76 5.80 2.03 1251717513 chilli 2700
FLASER 361 0.76 0.76 0.77 0.77 0.76 0.75 0.74 0.73 0.73 0.72 0.71 0.71 0.7 0.69 0.69 0.68 0.67 0.67 0.66 0.66 0.65 0.65 0.64 0.64 0.63 0.62 0.62 0.62 0.61 0.61 0.6 0.6 0.6 0.59 0.59 0.58 0.58 0.58 0.57 0.57 0.57 0.56 0.56 0.56 0.56 0.55 0.55 0.55 0.54 0.54 0.54 0.54 0.53 0.53 0.53 0.53 0.52 0.52 0.52 0.52 0.52 0.51 0.51 0.51 0.51 0.5 0.5 0.5 0.5 0.5 0.5 0.5 0.49 0.49 0.49 0.49 0.49 0.49 0.48 0.48 0.48 0.48 0.48 0.48 0.48 0.48 0.47 0.47 0.47 0.47 0.47 0.47 0.47 0.47 0.47 0.47 0.46 0.46 0.46 0.46 0.46 0.46 0.46 0.46 0.46 0.46 0.46 0.46 0.46 0.46 0.45 0.45 0.45 0.45 0.45 0.45 0.45 0.45 0.45 0.45 0.45 0.45 0.45 0.45 0.45 0.45 0.45 0.45 0.45 0.45 0.45 0.45 0.45 0.45 0.45 0.45 0.45 0.45 0.45 0.45 0.45 0.45 0.45 0.45 0.45 0.45 0.45 0.45 0.45 0.45 0.45 0.45 0.45 0.45 0.45 0.45 0.45 0.45 0.45 0.45 0.46 0.46 0.46 0.46 0.46 0.46 0.46 0.46 0.46 0.46 0.46 0.46 0.47 0.47 0.47 0.47 0.47 0.47 0.47 0.48 0.48 0.48 0.48 0.49 0.49 0.49 0.5 0.5 0.5 0.51 0.51 0.52 0.52 0.52 0.53 0.53 0.54 0.54 0.54 0.55 0.56 0.56 0.57 0.57 0.58 0.59 0.59 0.6 0.6 0.61 0.61 0.62 0.63 0.63 0.64 0.65 0.65 0.66 0.67 0.68 0.69 0.7 0.7 0.71 0.72 0.72 0.73 0.74 0.75 0.77 0.78 0.79 0.8 0.82 0.81 0.83 0.84 0.86 0.87 0.89 0.91 0.91 0.92 0.94 0.96 0.98 1.01 1.01 1.03 1.05 1.08 1.1 1.1 1.13 1.16 1.19 1.23 1.23 1.26 1.3 1.34 1.38 1.38 1.43 1.48 1.53 1.53 1.59 1.65 1.72 1.79 1.79 1.87 1.96 2.05 2.16 2.16 2.27 2.4 2.55 2.55 2.71 2.9 3.12 3.36 3.37 3.66 4.01 4.42 4.94 4.95 5.6 5.66 5.65 5.64 5.65 5.64 5.63 5.62 5.62 5.61 5.62 5.61 5.6 5.6 5.59 5.59 5.58 5.59 5.59 5.59 5.58 5.58 5.58 5.57 5.57 5.57 5.58 5.58 5.58 5.58 5.58 5.59 5.59 5.59 5.59 3.2 3.08 2.97 2.87 2.84 2.85 2.85 2.85 2.85 2.86 2.86 2.86 2.86 2.87 2.87 2.88 2.88 2.88 2.89 2.9 2.9 2.91 2.91 2.92 2.93 2.93 2.94 2.95 2.95 2.96 2.96 2.97 2.98 2.99 3.0 5.770220 5.790010 2.083253 5.770220 5.790010 2.083253 1251717513 chilli 2700
ODOM 5.77 5.79 2.16 1251717513 chilli 2800
TRUEPOS 5.76 5.80 2.10 1251717513 chilli 2800
FLASER 361 0.72 0.71 0.7 0.7 0.69 0.68 0.68 0.67 0.67 0.66 0.66 0.65 0.65 0.64 0.64 0.63 0.63 0.62 0.62 0.61 0.61 0.6 0.6 0.6 0.59 0.59 0.59 0.58 0.58 0.58 0.57 0.57 0.57 0.56 0.56 0.56 0.55 0.55 0.55 0.55 0.54 0.54 0.54 0.54 0.53 0.53 0.53 0.53 0.53 0.52 0.52 0.52 0.52 0.52 0.51 0.51 0.51 0.51 0.51 0.5 0.5 0.5 0.5 0.5 0.5 0.5 0.49 0.49 0.49 0.49 0.49 0.49 0.49 0.49 0.48 0.48 0.48 0.48 0.48 0.48 0.48 0.48 0.48 0.47 0.47 0.47 0.47 0.47 0.47 0.47 0.47 0.47 0.47 0.47 0.47 0.47 0.47 0.46 0.46 0.46 0.46 0.46 0.46 0.46 0.46 0.46 0.46 0.46 0.46 0.46 0.46 0.46 0.46 0.46 0.46 0.46 0.46 0.46 0.46 0.46 0.46 0.46 0.46 0.46 0.46 0.46 0.46 0.46 0.46 0.46 0.46 0.46 0.46 0.46 0.46 0.46 0.46 0.46 0.46 0.46 0.46 0.46 0.46 0.46 0.46 0.46 0.47 0.47 0.47 0.47 0.47 0.47 0.47 0.47 0.47 0.47 0.47 0.47 0.47 0.48 0.48 0.48 0.48 0.48 0.48 0.48 0.48 0.49 0.49 0.49 0.49 0.49 0.49 0.49 0.5 0.5 0.5 0.5 0.5 0.51 0.51 0.51 0.51 0.52 0.52 0.52 0.53 0.53 0.54 0.54 0.55 0.56 0.56 0.56 0.57 0.58 0.58 0.59 0.59 0.6 0.61 0.61 0.62 0.62 0.63 0.64 0.65 0.66 0.66 0.67 0.68 0.69 0.69 0.7 0.71 0.72 0.73 0.74 0.75 0.76 0.77 0.78 0.79 0.81 0.82 0.82 0.83 0.84 0.86 0.87 0.89 0.91 0.92 0.94 0.94 0.96 0.98 1.0 1.02 1.04 1.07 1.07 1.09 1.12 1.15 1.18 1.21 1.21 1.24 1.28 1.32 1.36 1.35 1.4 1.44 1.49 1.55 1.55 1.6 1.67 1.73 1.81 1.8 1.88 1.97 2.07 2.07 2.17 2.29 2.42 2.57 2.57 2.74 2.93 3.14 3.4 3.4 3.7 4.05 4.48 4.48 5.02 5.6 5.6 5.6 5.6 5.6 5.6 5.6 5.64 5.65 5.64 5.64 5.63 5.63 5.63 5.63 5.63 5.62 5.62 5.62 5.62 5.62 5.62 5.62 5.62 5.62 5.62 5.63 5.63 5.63 5.63 5.63 5.63 5.63 5.64 5.64 5.65 3.16 3.04 2.92 2.87 2.87 2.87 2.88 2.88 2.88 2.89 2.89 2.89 2.9 2.9 2.91 2.91 2.92 2.92 2.93 2.93 2.94 2.94 2.95 2.96 2.97 2.97 2.98 2.99 3.0 3.01 3.01 3.02 3.03 3.04 3.05 3.06 3.07 3.08 3.09 3.1 3.11 3.12 3.14 5.770220 5.790010 2.161793 5.770220 5.790010 2.161793 1251717513 chilli 2800
ODOM 5.77 5.79 2.24 1251717513 chilli 2900
TRUEPOS 5.76 5.80 2.18 1251717513 chilli 2900
FLASER 361 0.66 0.66 0.65 0.65 0.64 0.64 0.63 0.63 0.62 0.62 0.61 0.61 0.61 0.6 0.6 0.59 0.59 0.59 0.58 0.58 0.58 0.57 0.57 0.57 0.56 0.56 0.56 0.56 0.55 0.55 0.55 0.55 0.54 0.54 0.54 0.54 0.53 0.53 0.53 0.53 0.53 0.52 0.52 0.52 0.52 0.52 0.52 0.51 0.51 0.51 0.51 0.51 0.51 0.5 0.5 0.5 0.5 0.5 0.5 0.5 0.5 0.49 0.49 0.49 0.49 0.49 0.49 0.49 0.49 0.49 0.48 0.48 0.48 0.48 0.48 0.48 0.48 0.48 0.48 0.48 0.48 0.48 0.48 0.48 0.47 0.47 0.47 0.47 0.47 0.47 0.47 0.47 0.47 0.47 0.47 0.47 0.47 0.47 0.47 0.47 0.47 0.47 0.47 0.47 0.47 0.47 0.47 0.47 0.47 0.47 0.47 0.47 0.47 0.47 0.47 0.47 0.47 0.47 0.47 0.47 0.47 0.47 0.47 0.47 0.47 0.47 0.47 0.47 0.47 0.47 0.47 0.47 0.48 0.48 0.48 0.48 0.48 0.48 0.48 0.48 0.48 0.48 0.48 0.48 0.48 0.49 0.49 0.49 0.49 0.49 0.49 0.49 0.49 0.49 0.5 0.5 0.5 0.5 0.5 0.5 0.5 0.51 0.51 0.51 0.51 0.51 0.51 0.52 0.52 0.52 0.52 0.52 0.53 0.53 0.53 0.53 0.54 0.54 0.54 0.54 0.55 0.55 0.55 0.56 0.56 0.57 0.58 0.58 0.59 0.59 0.6 0.61 0.61 0.62 0.63 0.63 0.64 0.64 0.65 0.66 0.67 0.68 0.68 0.69 0.7 0.72 0.72 0.73 0.74 0.75 0.76 0.77 0.78 0.79 0.8 0.81 0.83 0.84 0.85 0.87 0.88 0.9 0.91 0.93 0.94 0.94 0.96 0.98 1.0 1.02 1.04 1.06 1.09 1.11 1.11 1.14 1.17 1.2 1.23 1.26 1.3 1.3 1.34 1.38 1.42 1.47 1.52 1.51 1.57 1.62 1.69 1.75 1.75 1.83 1.9 1.99 2.09 2.09 2.19 2.31 2.44 2.59 2.59 2.75 2.94 3.16 3.16 3.41 3.71 4.07 4.5 4.5 5.03 5.6 5.6 5.6 5.6 5.6 5.6 5.6 5.6 5.6 5.6 5.6 5.6 5.6 5.6 5.6 5.6 5.64 5.65 5.64 5.64 5.64 5.64 5.65 5.65 5.65 5.65 5.65 5.66 5.66 5.67 5.67 5.67 5.68 5.68 5.68 5.69 3.18 3.04 2.92 2.89 2.89 2.89 2.9 2.9 2.91 2.91 2.92 2.92 2.92 2.93 2.93 2.94 2.94 2.95 2.96 2.96 2.97 2.98 2.98 2.99 3.0 3.01 3.01 3.02 3.03 3.04 3.05 3.05 3.06 3.07 3.08 3.09 3.1 3.12 3.13 3.14 3.15 3.16 3.17 3.19 3.2 3.21 3.23 3.24 3.26 3.27 3.29 3.3 5.770220 5.790010 2.240333 5.770220 5.790010 2.240333 1251717513 chilli 2900
ODOM 5.77 5.79 2.32 1251717513 chilli 3000
TRUEPOS 5.76 5.80 2.26 1251717513 chilli 3000
FLASER 361 0.62 0.61 0.61 0.61 0.6 0.6 0.6 0.59 0.59 0.58 0.58 0.58 0.58 0.57 0.57 0.57 0.56 0.56 0.56 0.56 0.55 0.55 0.55 0.55 0.54 0.54 0.54 0.54 0.53 0.53 0.53 0.53 0.53 0.53 0.52 0.52 0.52 0.52 0.52 0.52 0.51 0.51 0.51 0.51 0.51 0.51 0.51 0.5 0.5 0.5 0.5 0.5 0.5 0.5 0.5 0.5 0.5 0.49 0.49 0.49 0.49 0.49 0.49 0.49 0.49 0.49 0.49 0.49 0.49 0.49 0.48 0.48 0.48 0.48 0.48 0.48 0.48 0.48 0.48 0.48 0.48 0.48 0.48 0.48 0.48 0.48 0.48 0.48 0.48 0.48 0.48 0.48 0.48 0.48 0.48 0.48 0.48 0.48 0.48 0.48 0.48 0.48 0.48 0.48 0.48 0.48 0.48 0.48 0.48 0.48 0.48 0.48 0.48 0.48 0.48 0.48 0.48 0.48 0.49 0.49 0.49 0.49 0.49 0.49 0.49 0.49 0.49 0.49 0.49 0.49 0.49 0.49 0.5 0.5 0.5 0.5 0.5 0.5 0.5 0.5 0.5 0.51 0.51 0.51 0.51 0.51 0.51 0.51 0.52 0.52 0.52 0.52 0.52 0.52 0.53 0.53 0.53 0.53 0.53 0.54 0.54 0.54 0.54 0.54 0.55 0.55 0.55 0.55 0.56 0.56 0.56 0.57 0.57 0.57 0.57 0.58 0.58 0.58 0.59 0.59 0.59 0.6 0.6 0.61 0.62 0.62 0.63 0.64 0.65 0.65 0.66 0.67 0.68 0.68 0.7 0.7 0.71 0.72 0.72 0.74 0.75 0.76 0.77 0.78 0.79 0.81 0.82 0.83 0.84 0.85 0.87 0.88 0.89 0.91 0.92 0.94 0.96 0.97 0.99 1.01 1.03 1.05 1.07 1.1 1.12 1.12 1.14 1.17 1.2 1.23 1.26 1.29 1.33 1.37 1.37 1.41 1.45 1.5 1.55 1.6 1.66 1.66 1.72 1.78 1.86 1.94 2.03 2.02 2.12 2.23 2.34 2.47 2.47 2.62 2.78 2.97 3.19 3.19 3.44 3.73 4.09 4.51 4.51 5.03 5.6 5.6 5.6 5.6 5.6 5.6 5.6 5.6 5.6 5.6 5.6 5.6 5.6 5.6 5.6 5.6 5.6 5.6 5.6 5.6 5.6 5.6 5.6 5.6 5.6 5.6 5.6 5.6 5.6 5.6 5.6 5.6 5.6 5.6 5.6 3.24 3.1 3.1 2.97 2.9 2.91 2.91 2.91 2.92 2.92 2.93 2.93 2.94 2.94 2.95 2.96 2.96 2.97 2.97 2.98 2.99 2.99 3.0 3.01 3.02 3.02 3.03 3.04 3.05 3.06 3.07 3.08 3.09 3.1 3.11 3.12 3.13 3.14 3.15 3.16 3.17 3.19 3.2 3.21 3.22 3.24 3.25 3.27 3.28 3.3 3.31 3.33 3.35 3.36 3.36 3.29 3.27 3.21 3.19 3.17 3.11 3.09 5.770220 5.790010 2.318873 5.770220 5.790010 2.318873 1251717513 chilli 3000
ODOM 5.77 5.79 2.40 1251717513 chilli 3100
TRUEPOS 5.76 5.80 2.33 1251717513 chilli 3100
FLASER 361 0.59 0.58 0.58 0.58 0.57 0.57 0.57 0.57 0.56 0.56 0.56 0.55 0.55 0.55 0.55 0.55 0.54 0.54 0.54 0.54 0.54 0.53 0.53 0.53 0.53 0.53 0.52 0.52 0.52 0.52 0.52 0.52 0.52 0.51 0.51 0.51 0.51 0.51 0.51 0.51 0.51 0.51 0.5 0.5 0.5 0.5 0.5 0.5 0.5 0.5 0.5 0.5 0.5 0.5 0.49 0.49 0.49 0.49 0.49 0.49 0.49 0.49 0.49 0.49 0.49 0.49 0.49 0.49 0.49 0.49 0.49 0.49 0.49 0.49 0.49 0.49 0.49 0.49 0.49 0.49 0.49 0.49 0.49 0.49 0.49 0.49 0.49 0.49 0.49 0.49 0.49 0.49 0.49 0.49 0.49 0.49 0.49 0.49 0.49 0.49 0.49 0.49 0.49 0.49 0.49 0.49 0.5 0.5 0.5 0.5 0.5 0.5 0.5 0.5 0.5 0.5 0.5 0.5 0.5 0.51 0.51 0.51 0.51 0.51 0.51 0.51 0.51 0.51 0.52 0.52 0.52 0.52 0.52 0.52 0.52 0.53 0.53 0.53 0.53 0.53 0.53 0.54 0.54 0.54 0.54 0.54 0.55 0.55 0.55 0.55 0.55 0.56 0.56 0.56 0.56 0.57 0.57 0.57 0.57 0.58 0.58 0.58 0.59 0.59 0.59 0.59 0.6 0.6 0.61 0.61 0.61 0.62 0.62 0.62 0.63 0.63 0.64 0.64 0.65 0.65 0.66 0.66 0.67 0.68 0.68 0.69 0.7 0.71 0.72 0.73 0.73 0.75 0.76 0.77 0.79 0.79 0.8 0.81 0.82 0.84 0.86 0.87 0.88 0.89 0.9 0.93 0.95 0.96 0.98 1.0 1.01 1.03 1.05 1.07 1.09 1.11 1.14 1.16 1.19 1.21 1.24 1.27 1.31 1.34 1.38 1.37 1.41 1.45 1.5 1.55 1.6 1.65 1.71 1.77 1.77 1.84 1.91 1.99 2.08 2.18 2.29 2.28 2.4 2.53 2.68 2.85 3.04 3.04 3.26 3.51 3.81 4.16 4.15 4.58 5.1 5.6 5.6 5.6 5.6 5.6 5.6 5.6 5.6 5.6 5.6 5.6 5.6 5.6 5.6 5.6 5.6 5.6 5.6 5.6 5.6 5.6 5.6 5.6 5.6 5.6 5.6 5.6 5.6 5.6 5.6 5.6 5.6 5.6 5.6 5.6 5.6 3.19 3.04 2.91 2.91 2.91 2.92 2.92 2.93 2.94 2.94 2.95 2.95 2.96 2.97 2.97 2.98 2.99 2.99 3.0 3.01 3.02 3.02 3.03 3.04 3.05 3.06 3.07 3.07 3.08 3.09 3.1 3.11 3.13 3.14 3.15 3.16 3.17 3.18 3.19 3.21 3.22 3.23 3.25 3.26 3.27 3.29 3.31 3.32 3.34 3.35 3.37 3.39 3.4 3.39 3.36 3.33 3.3 3.22 3.2 3.17 3.11 3.09 3.07 3.01 2.99 2.94 2.92 2.91 2.86 2.85 5.770214 5.790016 2.397362 5.770214 5.790016 2.397362 1251717513 chilli 3100
ODOM 5.77 5.79 2.48 1251717514 chilli 3200
TRUEPOS 5.76 5.80 2.41 1251717514 chilli 3200
FLASER 361 0.56 0.56 0.56 0.55 0.55 0.55 0.55 0.55 0.54 0.54 0.54 0.54 0.54 0.53 0.53 0.53 0.53 0.53 0.53 0.52 0.52 0.52 0.52 0.52 0.52 0.52 0.52 0.51 0.51 0.51 0.51 0.51 0.51 0.51 0.51 0.51 0.51 0.51 0.5 0.5 0.5 0.5 0.5 0.5 0.5 0.5 0.5 0.5 0.5 0.5 0.5 0.5 0.5 0.5 0.5 0.5 0.5 0.5 0.5 0.5 0.5 0.5 0.5 0.5 0.5 0.5 0.5 0.5 0.5 0.5 0.5 0.5 0.5 0.5 0.5 0.5 0.5 0.5 0.5 0.5 0.5 0.5 0.5 0.5 0.5 0.5 0.5 0.5 0.5 0.5 0.5 0.5 0.5 0.51 0.51 0.51 0.51 0.51 0.51 0.51 0.51 0.51 0.51 0.51 0.51 0.51 0.52 0.52 0.52 0.52 0.52 0.52 0.52 0.52 0.52 0.53 0.53 0.53 0.53 0.53 0.53 0.53 0.54 0.54 0.54 0.54 0.54 0.54 0.55 0.55 0.55 0.55 0.55 0.56 0.56 0.56 0.56 0.56 0.57 0.57 0.57 0.57 0.58 0.58 0.58 0.58 0.59 0.59 0.59 0.6 0.6 0.6 0.6 0.61 0.61 0.61 0.62 0.62 0.63 0.63 0.63 0.64 0.64 0.65 0.65 0.65 0.66 0.66 0.67 0.67 0.68 0.68 0.69 0.7 0.7 0.71 0.71 0.72 0.73 0.73 0.74 0.75 0.75 0.77 0.78 0.78 0.8 0.81 0.83 0.83 0.84 0.86 0.87 0.88 0.91 0.92 0.93 0.95 0.96 0.99 1.01 1.02 1.04 1.05 1.07 1.12 1.14 1.16 1.18 1.21 1.23 1.26 1.29 1.32 1.35 1.38 1.42 1.46 1.5 1.54 1.59 1.64 1.69 1.75 1.81 1.8 1.87 1.94 2.02 2.11 2.2 2.3 2.42 2.55 2.54 2.68 2.84 3.02 3.22 3.46 3.73 3.73 4.05 4.43 4.89 5.47 5.6 5.59 5.6 5.6 5.6 5.6 5.6 5.6 5.61 5.61 5.61 5.61 5.61 5.6 5.6 5.6 5.6 5.6 5.6 5.6 5.6 5.6 5.6 5.6 5.6 5.6 5.6 5.6 5.6 5.6 5.6 5.6 5.6 5.6 5.6 3.26 3.1 2.96 2.91 2.91 2.92 2.93 2.93 2.94 2.94 2.95 2.96 2.97 2.97 2.98 2.99 2.99 3.0 3.01 3.02 3.02 3.03 3.04 3.05 3.06 3.07 3.08 3.09 3.1 3.11 3.12 3.13 3.14 3.16 3.17 3.18 3.19 3.2 3.22 3.23 3.24 3.26 3.27 3.29 3.3 3.32 3.33 3.35 3.36 3.38 3.4 3.41 3.43 3.45 3.45 3.42 3.33 3.3 3.26 3.23 3.2 3.17 3.1 3.08 3.05 3.03 3.0 2.95 2.93 2.91 2.85 2.84 2.82 2.77 2.76 2.72 2.7 2.69 2.65 2.64 5.770208 5.790021 2.475851 5.770208 5.790021 2.475851 1251717514 chilli 3200
ODOM 5.77 5.79 2.55 1251717514 chilli 3300
TRUEPOS 5.76 5.80 2.49 1251717514 chilli 3300
FLASER 361 0.54 0.54 0.54 0.54 0.54 0.53 0.53 0.53 0.53 0.53 0.53 0.53 0.52 0.52 0.52 0.52 0.52 0.52 0.52 0.52 0.52 0.51 0.51 0.51 0.51 0.51 0.51 0.51 0.51 0.51 0.51 0.51 0.51 0.51 0.51 0.51 0.51 0.51 0.5 0.5 0.5 0.5 0.5 0.5 0.5 0.5 0.5 0.5 0.5 0.5 0.5 0.5 0.5 0.5 0.5 0.5 0.5 0.5 0.5 0.5 0.5 0.5 0.5 0.5 0.5 0.51 0.5 0.51 0.51 0.51 0.51 0.51 0.51 0.51 0.51 0.51 0.51 0.51 0.51 0.51 0.51 0.51 0.51 0.52 0.52 0.52 0.52 0.52 0.52 0.52 0.52 0.52 0.52 0.53 0.53 0.53 0.53 0.53 0.53 0.53 0.53 0.53 0.54 0.54 0.54 0.54 0.54 0.54 0.55 0.55 0.55 0.55 0.55 0.55 0.55 0.56 0.56 0.56 0.56 0.56 0.57 0.57 0.57 0.57 0.58 0.58 0.58 0.58 0.58 0.59 0.59 0.59 0.59 0.6 0.6 0.6 0.61 0.61 0.61 0.61 0.62 0.62 0.62 0.63 0.63 0.64 0.64 0.64 0.65 0.65 0.65 0.66 0.66 0.67 0.67 0.68 0.68 0.69 0.69 0.7 0.7 0.71 0.71 0.72 0.72 0.73 0.74 0.74 0.75 0.76 0.76 0.77 0.78 0.79 0.79 0.8 0.81 0.82 0.83 0.84 0.85 0.86 0.87 0.89 0.9 0.9 0.93 0.94 0.96 0.98 0.99 1.02 1.03 1.05 1.08 1.1 1.11 1.13 1.15 1.2 1.22 1.24 1.27 1.29 1.32 1.38 1.42 1.45 1.49 1.52 1.56 1.61 1.65 1.7 1.76 1.81 1.88 1.94 2.01 2.09 2.18 2.27 2.37 2.49 2.61 2.6 2.74 2.9 3.07 3.27 3.5 3.76 4.06 4.42 4.42 4.85 5.38 5.54 5.55 5.55 5.56 5.55 5.55 5.56 5.56 5.57 5.57 5.57 5.58 5.58 5.59 5.6 5.59 5.6 5.61 5.62 5.63 5.62 5.6 5.6 5.6 5.6 5.6 5.6 5.6 5.6 5.6 5.6 5.6 5.6 5.6 5.6 3.18 3.03 2.91 2.91 2.91 2.92 2.93 2.94 2.94 2.95 2.96 2.97 2.98 2.98 2.99 3.0 3.01 3.02 3.02 3.03 3.04 3.05 3.06 3.07 3.08 3.09 3.1 3.11 3.12 3.13 3.14 3.15 3.17 3.18 3.2 3.21 3.22 3.23 3.24 3.26 3.27 3.29 3.31 3.32 3.34 3.35 3.36 3.38 3.4 3.42 3.44 3.46 3.47 3.49 3.46 3.42 3.38 3.34 3.3 3.27 3.23 3.2 3.16 3.13 3.1 3.03 3.01 2.98 2.96 2.93 2.91 2.85 2.83 2.81 2.79 2.77 2.73 2.71 2.69 2.65 2.64 2.62 2.59 2.57 2.54 2.53 2.52 2.49 2.48 5.770208 5.790021 2.554391 5.770208 5.790021 2.554391 1251717514 chilli 3300
ODOM 5.77 5.79 2.63 1251717514 chilli 3400
TRUEPOS 5.76 5.80 2.57 1251717514 chilli 3400
FLASER 361 0.53 0.53 0.53 0.53 0.52 0.52 0.52 0.52 0.52 0.52 0.52 0.52 0.52 0.52 0.52 0.51 0.51 0.51 0.51 0.51 0.51 0.51 0.51 0.51 0.51 0.51 0.51 0.51 0.51 0.51 0.51 0.51 0.51 0.51 0.51 0.51 0.51 0.51 0.51 0.51 0.51 0.51 0.51 0.51 0.51 0.51 0.51 0.51 0.51 0.51 0.51 0.51 0.51 0.51 0.51 0.51 0.51 0.51 0.51 0.52 0.51 0.52 0.52 0.52 0.52 0.52 0.52 0.52 0.52 0.52 0.52 0.52 0.52 0.53 0.53 0.53 0.53 0.53 0.53 0.53 0.53 0.53 0.54 0.54 0.54 0.54 0.54 0.54 0.54 0.55 0.55 0.55 0.55 0.55 0.55 0.55 0.56 0.56 0.56 0.56 0.56 0.56 0.57 0.57 0.57 0.57 0.57 0.58 0.58 0.58 0.58 0.58 0.59 0.59 0.59 0.59 0.6 0.6 0.6 0.61 0.61 0.61 0.61 0.62 0.62 0.62 0.63 0.63 0.63 0.64 0.64 0.64 0.65 0.65 0.65 0.66 0.66 0.66 0.67 0.67 0.68 0.68 0.69 0.69 0.7 0.7 0.71 0.71 0.72 0.72 0.73 0.73 0.74 0.74 0.75 0.76 0.77 0.77 0.78 0.79 0.79 0.8 0.81 0.82 0.82 0.83 0.84 0.85 0.86 0.87 0.88 0.89 0.9 0.91 0.92 0.94 0.95 0.96 0.97 0.98 1.0 1.02 1.03 1.06 1.07 1.08 1.12 1.13 1.17 1.19 1.2 1.25 1.27 1.29 1.34 1.37 1.4 1.42 1.45 1.53 1.56 1.6 1.64 1.68 1.73 1.84 1.89 1.95 2.02 2.09 2.16 2.25 2.34 2.44 2.54 2.66 2.79 2.94 3.11 3.29 3.5 3.74 4.02 4.35 4.73 4.72 5.18 5.47 5.48 5.48 5.49 5.49 5.5 5.51 5.5 5.5 5.51 5.52 5.53 5.54 5.54 5.54 5.55 5.56 5.57 5.58 5.59 5.58 5.59 5.6 5.62 5.63 5.62 5.64 5.6 5.6 5.6 5.6 5.6 5.6 5.6 3.19 3.19 3.04 2.9 2.9 2.9 2.91 2.92 2.93 2.94 2.94 2.95 2.96 2.97 2.98 2.98 2.99 3.0 3.02 3.02 3.03 3.04 3.05 3.07 3.07 3.08 3.09 3.11 3.12 3.12 3.14 3.15 3.17 3.18 3.19 3.2 3.22 3.23 3.25 3.27 3.27 3.29 3.31 3.32 3.34 3.36 3.38 3.38 3.4 3.42 3.44 3.46 3.48 3.51 3.52 3.47 3.48 3.44 3.39 3.35 3.31 3.27 3.23 3.2 3.16 3.13 3.1 3.06 3.03 3.0 2.98 2.95 2.92 2.9 2.87 2.85 2.79 2.77 2.75 2.73 2.71 2.69 2.65 2.63 2.61 2.6 2.58 2.54 2.53 2.52 2.48 2.47 2.46 2.43 2.42 2.39 2.38 2.37 2.35 2.34 5.770228 5.790009 2.632787 5.770228 5.790009 2.632787 1251717514 chilli 3400
ODOM 5.77 5.79 2.71 1251717514 chilli 3500
TRUEPOS 5.76 5.80 2.65 1251717514 chilli 3500
FLASER 361 0.52 0.52 0.52 0.52 0.52 0.52 0.52 0.52 0.52 0.52 0.52 0.51 0.51 0.52 0.51 0.51 0.51 0.51 0.51 0.51 0.51 0.51 0.51 0.51 0.51 0.51 0.51 0.51 0.51 0.51 0.51 0.51 0.51 0.51 0.51 0.51 0.52 0.52 0.52 0.52 0.52 0.52 0.52 0.52 0.52 0.52 0.52 0.52 0.52 0.52 0.52 0.52 0.53 0.52 0.53 0.53 0.53 0.53 0.53 0.53 0.53 0.53 0.53 0.54 0.54 0.54 0.54 0.54 0.54 0.54 0.54 0.54 0.55 0.55 0.55 0.55 0.55 0.55 0.55 0.56 0.56 0.56 0.56 0.56 0.57 0.57 0.57 0.57 0.57 0.58 0.58 0.58 0.58 0.58 0.59 0.59 0.59 0.59 0.59 0.59 0.6 0.6 0.6 0.61 0.61 0.61 0.61 0.62 0.62 0.62 0.63 0.63 0.63 0.64 0.64 0.64 0.65 0.65 0.65 0.66 0.66 0.66 0.67 0.67 0.68 0.68 0.69 0.69 0.69 0.7 0.7 0.71 0.71 0.72 0.72 0.73 0.73 0.74 0.74 0.75 0.75 0.76 0.77 0.77 0.78 0.79 0.79 0.8 0.81 0.81 0.82 0.83 0.84 0.85 0.85 0.86 0.88 0.88 0.89 0.9 0.91 0.92 0.94 0.95 0.96 0.97 0.98 1.0 1.01 1.02 1.04 1.05 1.07 1.09 1.1 1.12 1.14 1.15 1.18 1.19 1.22 1.25 1.27 1.31 1.33 1.35 1.4 1.42 1.48 1.51 1.54 1.61 1.64 1.68 1.77 1.81 1.86 1.91 1.96 2.09 2.16 2.23 2.31 2.39 2.49 2.71 2.83 2.96 3.11 3.28 3.47 3.68 3.92 4.2 4.53 4.91 5.36 5.4 5.41 5.41 5.42 5.42 5.43 5.44 5.44 5.43 5.44 5.45 5.46 5.46 5.47 5.48 5.49 5.51 5.5 5.51 5.52 5.53 5.54 5.56 5.57 5.56 5.58 5.59 5.61 5.62 5.64 5.63 5.65 5.6 5.6 3.16 3.16 3.01 2.88 2.88 2.89 2.89 2.9 2.91 2.92 2.93 2.93 2.94 2.96 2.97 2.97 2.98 2.99 3.01 3.02 3.02 3.03 3.05 3.06 3.08 3.08 3.09 3.11 3.12 3.12 3.14 3.15 3.17 3.19 3.19 3.21 3.22 3.24 3.26 3.26 3.28 3.3 3.32 3.34 3.34 3.36 3.39 3.41 3.43 3.45 3.45 3.48 3.5 3.52 3.55 3.51 3.46 3.47 3.42 3.38 3.34 3.29 3.25 3.21 3.18 3.14 3.15 3.11 3.08 3.05 3.01 2.98 2.95 2.92 2.9 2.87 2.84 2.82 2.79 2.77 2.75 2.73 2.7 2.68 2.66 2.64 2.6 2.58 2.56 2.55 2.53 2.52 2.48 2.47 2.45 2.44 2.43 2.4 2.39 2.38 2.34 2.34 2.33 2.3 2.29 2.27 2.26 2.26 2.23 2.23 5.770228 5.790009 2.711327 5.770228 5.790009 2.711327 1251717514 chilli 3500
ODOM 5.77 5.79 2.79 1251717514 chilli 3600
TRUEPOS 5.76 5.80 2.74 1251717514 chilli 3600
FLASER 361 0.52 0.52 0.52 0.52 0.52 0.52 0.52 0.52 0.52 0.52 0.52 0.52 0.52 0.52 0.52 0.52 0.52 0.52 0.52 0.52 0.52 0.52 0.52 0.52 0.52 0.52 0.52 0.52 0.52 0.52 0.52 0.52 0.52 0.52 0.52 0.53 0.53 0.53 0.53 0.53 0.53 0.53 0.53 0.53 0.53 0.53 0.53 0.54 0.54 0.54 0.54 0.54 0.54 0.54 0.54 0.55 0.55 0.55 0.55 0.55 0.55 0.55 0.56 0.56 0.56 0.56 0.56 0.56 0.57 0.57 0.57 0.57 0.57 0.57 0.58 0.58 0.58 0.58 0.58 0.59 0.59 0.59 0.59 0.6 0.6 0.6 0.6 0.61 0.61 0.61 0.61 0.62 0.62 0.62 0.63 0.63 0.63 0.63 0.64 0.64 0.64 0.65 0.65 0.65 0.66 0.66 0.66 0.67 0.67 0.67 0.68 0.68 0.69 0.69 0.69 0.7 0.7 0.71 0.72 0.72 0.72 0.73 0.73 0.74 0.75 0.75 0.76 0.76 0.77 0.77 0.78 0.79 0.79 0.8 0.81 0.82 0.82 0.83 0.83 0.84 0.85 0.86 0.87 0.88 0.89 0.9 0.91 0.92 0.93 0.94 0.95 0.96 0.97 0.98 0.99 1.0 1.02 1.04 1.05 1.06 1.08 1.09 1.11 1.13 1.14 1.16 1.18 1.2 1.22 1.24 1.27 1.29 1.31 1.34 1.36 1.4 1.42 1.45 1.49 1.51 1.56 1.61 1.64 1.71 1.74 1.78 1.86 1.91 2.01 2.06 2.11 2.25 2.31 2.39 2.56 2.65 2.75 2.86 2.98 3.28 3.44 3.63 3.83 4.07 4.33 5.02 5.32 5.32 5.32 5.33 5.33 5.34 5.34 5.35 5.35 5.36 5.37 5.38 5.38 5.39 5.4 5.41 5.42 5.43 5.45 5.43 5.45 5.46 5.47 5.49 5.5 5.51 5.53 5.55 5.54 5.55 5.57 5.59 5.6 5.62 5.64 5.63 3.08 2.94 2.85 2.86 2.87 2.87 2.88 2.89 2.9 2.91 2.91 2.92 2.94 2.95 2.96 2.96 2.97 2.99 3.0 3.02 3.02 3.03 3.05 3.06 3.06 3.08 3.09 3.11 3.13 3.13 3.15 3.16 3.18 3.2 3.2 3.22 3.24 3.26 3.26 3.28 3.3 3.32 3.35 3.35 3.37 3.39 3.42 3.44 3.44 3.47 3.49 3.52 3.54 3.55 3.57 3.52 3.47 3.42 3.37 3.38 3.33 3.29 3.25 3.21 3.17 3.13 3.14 3.1 3.07 3.03 3.0 2.97 2.94 2.91 2.88 2.89 2.86 2.83 2.8 2.78 2.75 2.73 2.71 2.69 2.66 2.64 2.62 2.6 2.58 2.57 2.55 2.53 2.51 2.5 2.48 2.44 2.43 2.42 2.4 2.39 2.38 2.35 2.34 2.32 2.32 2.31 2.28 2.27 2.26 2.24 2.23 2.22 2.2 2.19 2.17 2.17 2.16 2.14 2.14 5.770228 5.790009 2.789866 5.770228 5.790009 2.789866 1251717514 chilli 3600
ODOM 5.77 5.79 2.87 1251717514 chilli 3700
TRUEPOS 5.76 5.80 2.82 1251717514 chilli 3700
FLASER 361 0.52 0.52 0.52 0.52 0.52 0.52 0.52 0.52 0.52 0.52 0.52 0.52 0.52 0.52 0.52 0.52 0.52 0.52 0.53 0.53 0.53 0.53 0.53 0.53 0.53 0.53 0.53 0.53 0.53 0.53 0.53 0.54 0.54 0.54 0.54 0.54 0.54 0.54 0.54 0.55 0.55 0.55 0.55 0.55 0.55 0.55 0.55 0.56 0.56 0.56 0.56 0.56 0.57 0.56 0.57 0.57 0.57 0.57 0.58 0.58 0.58 0.58 0.58 0.58 0.59 0.59 0.59 0.59 0.6 0.6 0.6 0.6 0.6 0.61 0.61 0.61 0.61 0.62 0.62 0.63 0.63 0.63 0.63 0.64 0.64 0.64 0.64 0.65 0.65 0.66 0.66 0.66 0.67 0.67 0.68 0.68 0.68 0.69 0.69 0.69 0.7 0.7 0.71 0.71 0.71 0.72 0.73 0.73 0.74 0.74 0.74 0.75 0.76 0.76 0.77 0.77 0.78 0.79 0.79 0.8 0.8 0.81 0.82 0.83 0.83 0.84 0.85 0.85 0.86 0.87 0.88 0.89 0.9 0.91 0.92 0.93 0.93 0.94 0.96 0.97 0.98 0.99 1.0 1.02 1.03 1.04 1.06 1.07 1.09 1.1 1.12 1.13 1.15 1.16 1.18 1.2 1.23 1.25 1.27 1.29 1.31 1.33 1.37 1.39 1.42 1.44 1.47 1.51 1.54 1.57 1.62 1.66 1.69 1.75 1.79 1.85 1.89 1.93 2.01 2.06 2.14 2.24 2.3 2.44 2.5 2.58 2.75 2.85 3.07 3.19 3.32 3.65 3.82 4.02 4.52 4.81 5.15 5.21 5.21 5.24 5.24 5.24 5.24 5.25 5.25 5.28 5.29 5.3 5.3 5.31 5.32 5.33 5.34 5.35 5.36 5.37 5.38 5.39 5.4 5.42 5.43 5.44 5.46 5.47 5.49 5.48 5.49 5.51 5.53 5.55 5.57 3.09 2.96 2.83 2.82 2.82 2.83 2.84 2.85 2.87 2.88 2.87 2.89 2.9 2.91 2.93 2.94 2.94 2.95 2.97 2.98 3.0 2.99 3.01 3.03 3.04 3.06 3.06 3.08 3.09 3.11 3.13 3.13 3.15 3.17 3.19 3.19 3.21 3.23 3.25 3.27 3.27 3.29 3.32 3.34 3.36 3.37 3.39 3.41 3.44 3.44 3.47 3.5 3.52 3.55 3.55 3.57 3.52 3.47 3.42 3.43 3.38 3.34 3.29 3.25 3.25 3.21 3.17 3.14 3.1 3.06 3.07 3.03 3.0 2.97 2.94 2.9 2.88 2.88 2.85 2.82 2.8 2.77 2.75 2.72 2.7 2.67 2.68 2.66 2.64 2.61 2.59 2.57 2.55 2.54 2.52 2.5 2.48 2.47 2.45 2.43 2.42 2.41 2.39 2.38 2.37 2.35 2.32 2.31 2.3 2.29 2.28 2.27 2.24 2.23 2.22 2.22 2.21 2.18 2.18 2.17 2.15 2.14 2.14 2.12 2.12 2.1 2.09 2.09 2.07 2.07 5.770228 5.790009 2.868406 5.770228 5.790009 2.868406 1251717514 chilli 3700
ODOM 5.77 5.79 2.95 1251717514 chilli 3800
TRUEPOS 5.76 5.80 2.90 1251717514 chilli 3800
FLASER 361 0.52 0.52 0.53 0.52 0.52 0.53 0.53 0.53 0.53 0.53 0.53 0.53 0.53 0.53 0.53 0.53 0.53 0.53 0.54 0.54 0.54 0.54 0.54 0.54 0.54 0.55 0.55 0.55 0.55 0.55 0.55 0.55 0.55 0.56 0.56 0.56 0.56 0.56 0.56 0.57 0.57 0.57 0.57 0.57 0.57 0.57 0.58 0.58 0.58 0.58 0.59 0.59 0.59 0.59 0.59 0.6 0.6 0.6 0.61 0.61 0.61 0.61 0.62 0.62 0.62 0.63 0.63 0.63 0.63 0.64 0.64 0.64 0.64 0.65 0.65 0.66 0.66 0.66 0.67 0.67 0.68 0.68 0.68 0.69 0.69 0.69 0.7 0.7 0.71 0.71 0.71 0.72 0.72 0.73 0.74 0.74 0.74 0.75 0.76 0.76 0.76 0.77 0.78 0.79 0.79 0.79 0.8 0.81 0.82 0.82 0.83 0.84 0.84 0.85 0.85 0.86 0.87 0.88 0.89 0.9 0.9 0.92 0.93 0.94 0.95 0.96 0.97 0.97 0.99 1.0 1.01 1.03 1.04 1.05 1.07 1.08 1.09 1.1 1.12 1.14 1.15 1.17 1.19 1.21 1.23 1.25 1.27 1.29 1.31 1.33 1.36 1.38 1.4 1.43 1.46 1.49 1.54 1.57 1.6 1.63 1.67 1.7 1.77 1.81 1.85 1.89 1.94 2.03 2.08 2.13 2.23 2.29 2.36 2.48 2.55 2.7 2.78 2.87 3.05 3.16 3.37 3.63 3.78 4.14 4.34 4.56 5.11 5.11 5.13 5.13 5.12 5.15 5.15 5.15 5.18 5.18 5.18 5.18 5.19 5.22 5.23 5.23 5.24 5.25 5.25 5.29 5.3 5.31 5.32 5.33 5.34 5.36 5.37 5.38 5.4 5.41 5.43 5.44 5.46 5.48 5.5 3.01 2.88 2.78 2.79 2.78 2.79 2.8 2.81 2.82 2.84 2.85 2.86 2.88 2.87 2.88 2.9 2.91 2.93 2.94 2.96 2.95 2.97 2.99 3.0 3.02 3.04 3.03 3.05 3.07 3.09 3.11 3.11 3.13 3.15 3.17 3.19 3.19 3.21 3.23 3.25 3.28 3.28 3.3 3.32 3.35 3.35 3.38 3.4 3.43 3.46 3.46 3.48 3.51 3.54 3.57 3.58 3.53 3.48 3.43 3.43 3.38 3.34 3.3 3.25 3.26 3.22 3.18 3.14 3.1 3.1 3.07 3.03 3.0 2.97 2.97 2.94 2.91 2.88 2.85 2.82 2.82 2.8 2.77 2.74 2.72 2.7 2.67 2.68 2.65 2.63 2.61 2.59 2.57 2.55 2.53 2.51 2.51 2.5 2.48 2.46 2.44 2.43 2.41 2.4 2.38 2.37 2.35 2.34 2.33 2.32 2.3 2.29 2.28 2.27 2.26 2.25 2.22 2.21 2.2 2.19 2.19 2.18 2.16 2.15 2.14 2.14 2.13 2.11 2.11 2.1 2.08 2.08 2.07 2.06 2.06 2.04 2.04 2.04 2.1 2.17 5.770228 5.790009 2.946946 5.770228 5.790009 2.946946 1251717514 chilli 3800
ODOM 5.77 5.79 3.03 1251717514 chilli 3900
TRUEPOS 5.76 5.80 2.99 1251717514 chilli 3900
FLASER 361 0.53 0.53 0.53 0.53 0.53 0.54 0.54 0.54 0.54 0.54 0.54 0.54 0.54 0.55 0.55 0.55 0.55 0.55 0.55 0.55 0.56 0.56 0.56 0.56 0.56 0.56 0.57 0.57 0.57 0.57 0.57 0.57 0.58 0.58 0.58 0.58 0.58 0.59 0.59 0.59 0.59 0.6 0.6 0.6 0.6 0.6 0.61 0.61 0.61 0.62 0.62 0.62 0.63 0.62 0.63 0.63 0.64 0.64 0.64 0.65 0.65 0.65 0.66 0.66 0.66 0.67 0.67 0.67 0.68 0.68 0.69 0.69 0.69 0.7 0.7 0.71 0.71 0.71 0.72 0.73 0.73 0.73 0.74 0.75 0.75 0.75 0.76 0.77 0.77 0.78 0.78 0.79 0.8 0.8 0.81 0.81 0.82 0.83 0.84 0.84 0.85 0.86 0.87 0.88 0.88 0.89 0.9 0.91 0.92 0.92 0.93 0.94 0.96 0.97 0.97 0.98 1.0 1.01 1.02 1.04 1.04 1.05 1.07 1.08 1.1 1.12 1.13 1.14 1.15 1.17 1.19 1.21 1.23 1.25 1.27 1.3 1.3 1.32 1.35 1.37 1.4 1.43 1.45 1.48 1.51 1.54 1.58 1.61 1.65 1.68 1.72 1.76 1.8 1.85 1.89 1.94 2.04 2.09 2.15 2.21 2.27 2.34 2.48 2.56 2.64 2.73 2.82 3.02 3.13 3.25 3.51 3.66 3.82 4.17 4.38 4.83 5.11 5.12 5.09 5.09 5.06 5.05 5.05 5.07 5.06 5.06 5.08 5.08 5.11 5.11 5.11 5.14 5.14 5.15 5.18 5.18 5.19 5.2 5.2 5.24 5.25 5.26 5.27 5.28 5.29 5.34 5.35 5.36 5.38 5.39 3.07 2.95 2.83 2.73 2.74 2.75 2.76 2.77 2.78 2.79 2.8 2.81 2.82 2.84 2.85 2.84 2.86 2.87 2.89 2.9 2.91 2.93 2.95 2.96 2.96 2.97 2.99 3.01 3.03 3.05 3.07 3.06 3.08 3.1 3.12 3.14 3.17 3.16 3.18 3.21 3.23 3.26 3.25 3.28 3.3 3.33 3.36 3.35 3.38 3.41 3.44 3.47 3.47 3.5 3.53 3.56 3.56 3.52 3.48 3.43 3.38 3.38 3.34 3.3 3.26 3.22 3.22 3.18 3.14 3.1 3.11 3.07 3.04 3.0 2.97 2.97 2.94 2.91 2.88 2.85 2.85 2.83 2.8 2.77 2.75 2.75 2.72 2.7 2.67 2.65 2.63 2.63 2.61 2.59 2.57 2.55 2.53 2.51 2.51 2.49 2.48 2.46 2.44 2.42 2.41 2.39 2.38 2.38 2.37 2.35 2.34 2.33 2.31 2.3 2.29 2.28 2.26 2.25 2.24 2.23 2.22 2.21 2.2 2.19 2.18 2.18 2.17 2.14 2.14 2.13 2.12 2.12 2.11 2.09 2.09 2.08 2.08 2.07 2.05 2.1 2.17 2.33 5.39 5.39 5.35 5.34 5.31 5.31 5.31 5.28 5.28 5.770228 5.790009 3.025486 5.770228 5.790009 3.025486 1251717514 chilli 3900
ODOM 5.77 5.79 3.08 1251717514 chilli 4000
TRUEPOS 5.76 5.80 3.07 1251717514 chilli 4000
FLASER 361 0.54 0.54 0.54 0.54 0.54 0.55 0.55 0.55 0.55 0.55 0.55 0.55 0.56 0.56 0.56 0.56 0.56 0.56 0.57 0.57 0.57 0.57 0.57 0.57 0.58 0.58 0.58 0.59 0.59 0.59 0.59 0.59 0.6 0.6 0.6 0.6 0.61 0.61 0.61 0.61 0.62 0.62 0.62 0.63 0.63 0.63 0.63 0.64 0.64 0.64 0.65 0.65 0.66 0.65 0.66 0.66 0.67 0.67 0.68 0.68 0.68 0.69 0.69 0.7 0.7 0.71 0.71 0.71 0.72 0.72 0.73 0.73 0.73 0.74 0.75 0.75 0.75 0.76 0.77 0.78 0.78 0.78 0.79 0.8 0.81 0.81 0.81 0.82 0.83 0.84 0.84 0.85 0.86 0.87 0.88 0.88 0.89 0.9 0.91 0.91 0.92 0.94 0.95 0.96 0.96 0.97 0.99 1.0 1.01 1.01 1.03 1.04 1.06 1.08 1.08 1.09 1.11 1.13 1.15 1.16 1.17 1.18 1.2 1.23 1.25 1.27 1.29 1.29 1.32 1.34 1.37 1.4 1.42 1.45 1.48 1.51 1.52 1.55 1.58 1.62 1.66 1.69 1.73 1.78 1.82 1.87 1.92 1.97 2.02 2.08 2.14 2.2 2.27 2.34 2.41 2.49 2.66 2.75 2.85 2.96 3.08 3.2 3.47 3.63 3.8 3.99 4.19 4.64 4.92 5.19 5.16 5.15 5.15 5.12 5.12 5.09 5.09 5.09 5.06 5.07 5.04 5.04 5.04 5.06 5.06 5.06 5.09 5.09 5.12 5.12 5.12 5.16 5.16 5.17 5.2 5.21 5.22 5.23 5.24 5.28 5.29 5.3 5.32 3.0 2.89 2.69 2.7 2.71 2.72 2.73 2.74 2.75 2.76 2.77 2.78 2.79 2.8 2.81 2.83 2.84 2.85 2.87 2.88 2.9 2.91 2.9 2.92 2.94 2.95 2.97 2.99 3.01 3.02 3.04 3.04 3.06 3.08 3.1 3.12 3.14 3.16 3.16 3.18 3.21 3.23 3.25 3.28 3.28 3.3 3.33 3.36 3.39 3.38 3.41 3.44 3.47 3.5 3.5 3.53 3.52 3.47 3.43 3.43 3.38 3.34 3.3 3.3 3.26 3.22 3.18 3.14 3.14 3.11 3.07 3.04 3.01 3.01 2.97 2.94 2.91 2.91 2.88 2.86 2.83 2.8 2.8 2.78 2.75 2.72 2.7 2.7 2.68 2.66 2.63 2.61 2.61 2.59 2.57 2.55 2.53 2.51 2.52 2.5 2.48 2.46 2.44 2.43 2.41 2.41 2.4 2.38 2.37 2.35 2.34 2.32 2.31 2.3 2.3 2.29 2.28 2.27 2.25 2.24 2.23 2.22 2.21 2.2 2.19 2.18 2.17 2.17 2.16 2.15 2.14 2.13 2.13 2.12 2.1 2.09 2.09 2.08 2.08 2.09 2.25 2.35 5.45 5.44 5.44 5.39 5.39 5.38 5.35 5.34 5.34 5.31 5.3 5.27 5.27 5.28 5.25 5.25 5.766990 5.790197 3.083758 5.766990 5.790197 3.083758 1251717514 chilli 4000
ODOM 5.76 5.79 3.10 1251717514 chilli 4100
TRUEPOS 5.76 5.80 3.14 1251717514 chilli 4100
