ODOM 0.000000 0.000000 0.000000 0 0 0 1156483644.773350 pippo 1156483644.773350
ENTROPY -102.035921 0.000000 11090354.888959 0.000000 pippo 0.000000
ODOM 0.000000 0.000000 0.000000 0 0 0 1156483644.880359 pippo 1156483644.880359
ODOM 0.000000 0.000000 0.000000 0 0 0 1156483644.987315 pippo 1156483644.987315
ODOM 0.000000 0.000000 0.000000 0 0 0 1156483645.093297 pippo 1156483645.093297
ODOM 0.000000 0.000000 0.000000 0 0 0 1156483645.200333 pippo 1156483645.200333
ODOM 0.000000 0.000000 0.000000 0 0 0 1156483645.307265 pippo 1156483645.307265
ODOM 0.000000 0.000000 0.000000 0 0 0 1156483645.414305 pippo 1156483645.414305
ODOM 0.000000 0.000000 0.000000 0 0 0 1156483645.520234 pippo 1156483645.520234
ODOM 0.000000 0.000000 0.000000 0 0 0 1156483645.627218 pippo 1156483645.627218
ODOM 0.000000 0.000000 0.000000 0 0 0 1156483645.734200 pippo 1156483645.734200
ODOM 0.000000 0.000000 0.000000 0 0 0 1156483645.840183 pippo 1156483645.840183
ODOM 0.000000 0.000000 0.000000 0 0 0 1156483645.947168 pippo 1156483645.947168
ODOM 0.000000 0.000000 0.000000 0 0 0 1156483646.054152 pippo 1156483646.054152
ODOM 0.000000 0.000000 0.000000 0 0 0 1156483646.161134 pippo 1156483646.161134
ODOM 0.000000 0.000000 0.000000 0 0 0 1156483646.267120 pippo 1156483646.267120
ODOM 0.000000 0.000000 0.000000 0 0 0 1156483646.374103 pippo 1156483646.374103
ODOM 0.000000 0.000000 0.000000 0 0 0 1156483646.481086 pippo 1156483646.481086
ODOM 0.000000 0.000000 0.000000 0 0 0 1156483646.587070 pippo 1156483646.587070
ODOM 0.000000 0.000000 0.000000 0 0 0 1156483646.694053 pippo 1156483646.694053
ODOM 0.000000 0.000000 0.000000 0 0 0 1156483646.801038 pippo 1156483646.801038
ODOM 0.000000 0.000000 0.000000 0 0 0 1156483646.908023 pippo 1156483646.908023
ODOM 0.000000 0.000000 0.000000 0 0 0 1156483647.014006 pippo 1156483647.014006
ODOM 0.000000 0.000000 0.000000 0 0 0 1156483647.121009 pippo 1156483647.121009
ODOM 0.000000 0.000000 0.000000 0 0 0 1156483647.227974 pippo 1156483647.227974
ODOM 0.000000 0.000000 0.000000 0 0 0 1156483647.333956 pippo 1156483647.333956
ODOM 0.000000 0.000000 0.000000 0 0 0 1156483647.441153 pippo 1156483647.441153
ODOM 0.000000 0.000000 0.000000 0 0 0 1156483647.547927 pippo 1156483647.547927
ODOM 0.000000 0.000000 0.000000 0 0 0 1156483647.654911 pippo 1156483647.654911
ODOM 0.000000 0.000000 0.000000 0 0 0 1156483647.760890 pippo 1156483647.760890
ODOM 0.000000 0.000000 0.000000 0 0 0 1156483647.867877 pippo 1156483647.867877
ODOM 0.000000 0.000000 0.000000 0 0 0 1156483647.974860 pippo 1156483647.974860
ODOM 0.000000 0.000000 0.000000 0 0 0 1156483648.081842 pippo 1156483648.081842
ODOM 0.000000 0.000000 0.000000 0 0 0 1156483648.187828 pippo 1156483648.187828
ODOM 0.000000 0.000000 0.000000 0 0 0 1156483648.294811 pippo 1156483648.294811
ODOM 0.000000 0.000000 0.000000 0 0 0 1156483648.401795 pippo 1156483648.401795
ODOM 0.000000 0.000000 0.000000 0 0 0 1156483648.507778 pippo 1156483648.507778
ODOM 0.000000 0.000000 0.000000 0 0 0 1156483648.614763 pippo 1156483648.614763
ODOM 0.000000 0.000000 0.000000 0 0 0 1156483648.721745 pippo 1156483648.721745
ODOM 0.000000 0.000000 0.000000 0 0 0 1156483648.828730 pippo 1156483648.828730
ODOM 0.000000 0.000000 0.000000 0 0 0 1156483648.934713 pippo 1156483648.934713
ODOM 0.000000 0.000000 0.000000 0 0 0 1156483649.041703 pippo 1156483649.041703
ODOM 0.000000 0.000000 0.000000 0 0 0 1156483649.148694 pippo 1156483649.148694
ODOM 0.000000 0.000000 0.000000 0 0 0 1156483649.255665 pippo 1156483649.255665
ODOM 0.000000 0.000000 0.000000 0 0 0 1156483649.362157 pippo 1156483649.362157
ODOM 0.000000 0.000000 0.000000 0 0 0 1156483649.468661 pippo 1156483649.468661
ODOM 0.000000 0.000000 0.000000 0 0 0 1156483649.575615 pippo 1156483649.575615
ODOM 0.000000 0.000000 0.000000 0 0 0 1156483649.682598 pippo 1156483649.682598
ODOM 0.000000 0.000000 0.000000 0 0 0 1156483649.788583 pippo 1156483649.788583
ODOM 0.000000 0.000000 0.000000 0 0 0 1156483649.895568 pippo 1156483649.895568
ODOM 0.000000 0.000000 0.000000 0 0 0 1156483650.002550 pippo 1156483650.002550
ODOM 0.000000 0.000000 0.000000 0 0 0 1156483650.108539 pippo 1156483650.108539
ODOM 0.000000 0.000000 0.000000 0 0 0 1156483650.215518 pippo 1156483650.215518
ODOM 0.000000 0.000000 0.000000 0 0 0 1156483650.322502 pippo 1156483650.322502
ODOM 0.000000 0.000000 0.000000 0 0 0 1156483650.428486 pippo 1156483650.428486
ODOM 0.000000 0.000000 0.000000 0 0 0 1156483650.535469 pippo 1156483650.535469
ODOM 0.000000 0.000000 0.000000 0 0 0 1156483650.642453 pippo 1156483650.642453
ODOM 0.000000 0.000000 0.000000 0 0 0 1156483650.749437 pippo 1156483650.749437
ODOM 0.000000 0.000000 0.000000 0 0 0 1156483650.856623 pippo 1156483650.856623
ODOM 0.000000 0.000000 0.000000 0 0 0 1156483650.962421 pippo 1156483650.962421
ODOM 0.000000 0.000000 0.000000 0 0 0 1156483651.069389 pippo 1156483651.069389
ODOM 0.000000 0.000000 0.000000 0 0 0 1156483651.175374 pippo 1156483651.175374
ODOM 0.000000 0.000000 0.000000 0 0 0 1156483651.282365 pippo 1156483651.282365
ODOM 0.000000 0.000000 0.000000 0 0 0 1156483651.389343 pippo 1156483651.389343
ODOM 0.000000 0.000000 0.000000 0 0 0 1156483651.496323 pippo 1156483651.496323
ODOM 0.000000 0.000000 0.000000 0 0 0 1156483651.602308 pippo 1156483651.602308
ODOM 0.000000 0.000000 0.000000 0 0 0 1156483651.709292 pippo 1156483651.709292
ODOM 0.000000 0.000000 0.000000 0 0 0 1156483651.816276 pippo 1156483651.816276
ODOM 0.000000 0.000000 0.000000 0 0 0 1156483651.923258 pippo 1156483651.923258
ODOM 0.000000 0.000000 0.000000 0 0 0 1156483652.029244 pippo 1156483652.029244
ODOM 0.000000 0.000000 0.000000 0 0 0 1156483652.136228 pippo 1156483652.136228
ODOM 0.000000 0.000000 0.000000 0 0 0 1156483652.243210 pippo 1156483652.243210
ODOM 0.000000 0.000000 0.000000 0 0 0 1156483652.349196 pippo 1156483652.349196
ODOM 0.000000 0.000000 0.000000 0 0 0 1156483652.456179 pippo 1156483652.456179
ODOM 0.000000 0.000000 0.000000 0 0 0 1156483652.563160 pippo 1156483652.563160
ODOM 0.000000 0.000000 0.000000 0 0 0 1156483652.669145 pippo 1156483652.669145
ODOM 0.000000 0.000000 0.000000 0 0 0 1156483652.776130 pippo 1156483652.776130
ODOM 0.000000 0.000000 0.000000 0 0 0 1156483652.883113 pippo 1156483652.883113
ODOM 0.000000 0.000000 0.000000 0 0 0 1156483652.990096 pippo 1156483652.990096
ODOM 0.000000 0.000000 0.000000 0 0 0 1156483653.096081 pippo 1156483653.096081
ODOM 0.000000 0.000000 0.000000 0 0 0 1156483653.203179 pippo 1156483653.203179
ODOM 0.000000 0.000000 0.000000 0 0 0 1156483653.310073 pippo 1156483653.310073
ODOM 0.000000 0.000000 0.000000 0 0 0 1156483653.417033 pippo 1156483653.417033
ODOM 0.000000 0.000000 0.000000 0 0 0 1156483653.523017 pippo 1156483653.523017
ODOM 0.000000 0.000000 0.000000 0 0 0 1156483653.630001 pippo 1156483653.630001
ODOM 0.000000 0.000000 0.000000 0 0 0 1156483653.736985 pippo 1156483653.736985
ODOM 0.000000 0.000000 0.000000 0 0 0 1156483653.843967 pippo 1156483653.843967
ODOM 0.000000 0.000000 0.000000 0 0 0 1156483653.949952 pippo 1156483653.949952
ODOM 0.000000 0.000000 0.000000 0 0 0 1156483654.056936 pippo 1156483654.056936
ODOM 0.000000 0.000000 0.000000 0 0 0 1156483654.163918 pippo 1156483654.163918
ODOM 0.000000 0.000000 0.000000 0 0 0 1156483654.269902 pippo 1156483654.269902
ODOM 0.000000 0.000000 0.000000 0 0 0 1156483654.376885 pippo 1156483654.376885
ODOM 0.000000 0.000000 0.000000 0 0 0 1156483654.483868 pippo 1156483654.483868
ODOM 0.000000 0.000000 0.000000 0 0 0 1156483654.590852 pippo 1156483654.590852
ODOM 0.000000 0.000000 0.000000 0 0 0 1156483654.696838 pippo 1156483654.696838
ODOM 0.000000 0.000000 0.000000 0 0 0 1156483654.803825 pippo 1156483654.803825
ODOM 0.000000 0.000000 0.000000 0 0 0 1156483654.910818 pippo 1156483654.910818
ODOM 0.000000 0.000000 0.000000 0 0 0 1156483655.016789 pippo 1156483655.016789
ODOM 0.000000 0.000000 0.000000 0 0 0 1156483655.123811 pippo 1156483655.123811
ODOM 0.000000 0.000000 0.000000 0 0 0 1156483655.230757 pippo 1156483655.230757
ODOM 0.000000 0.000000 0.000000 0 0 0 1156483655.337743 pippo 1156483655.337743
ODOM 0.000000 0.000000 0.000000 0 0 0 1156483655.443726 pippo 1156483655.443726
ODOM 0.000000 0.000000 0.000000 0 0 0 1156483655.550707 pippo 1156483655.550707
ODOM 0.000000 0.000000 0.000000 0 0 0 1156483655.657691 pippo 1156483655.657691
ODOM 0.000000 0.000000 0.000000 0 0 0 1156483655.763674 pippo 1156483655.763674
ODOM 0.000000 0.000000 0.000000 0 0 0 1156483655.870660 pippo 1156483655.870660
ODOM 0.000000 0.000000 0.000000 0 0 0 1156483655.977644 pippo 1156483655.977644
ODOM 0.000000 0.000000 0.000000 0 0 0 1156483656.084626 pippo 1156483656.084626
ODOM 0.000000 0.000000 0.000000 0 0 0 1156483656.190615 pippo 1156483656.190615
ODOM 0.000000 0.000000 0.000000 0 0 0 1156483656.297955 pippo 1156483656.297955
ODOM 0.000000 0.000000 0.000000 0 0 0 1156483656.404577 pippo 1156483656.404577
ODOM 0.000000 0.000000 0.000000 0 0 0 1156483656.511575 pippo 1156483656.511575
ODOM 0.000000 0.000000 0.000000 0 0 0 1156483656.617546 pippo 1156483656.617546
ODOM 0.000000 0.000000 0.000000 0 0 0 1156483656.724530 pippo 1156483656.724530
ODOM 0.000000 0.000000 0.000000 0 0 0 1156483656.831512 pippo 1156483656.831512
ODOM 0.000000 0.000000 0.000000 0 0 0 1156483656.937495 pippo 1156483656.937495
ODOM 0.000000 0.000000 0.000000 0 0 0 1156483657.045376 pippo 1156483657.045376
ODOM 0.000000 0.000000 0.000000 0 0 0 1156483657.151479 pippo 1156483657.151479
ODOM 0.000000 0.000000 0.000000 0 0 0 1156483657.257447 pippo 1156483657.257447
ODOM 0.000000 0.000000 0.000000 0 0 0 1156483657.364434 pippo 1156483657.364434
ODOM 0.000000 0.000000 0.000000 0 0 0 1156483657.471415 pippo 1156483657.471415
ODOM 0.000000 0.000000 0.000000 0 0 0 1156483657.578399 pippo 1156483657.578399
ODOM 0.000000 0.000000 0.000000 0 0 0 1156483657.684383 pippo 1156483657.684383
ODOM 0.000000 0.000000 0.000000 0 0 0 1156483657.791369 pippo 1156483657.791369
ODOM 0.000000 0.000000 0.000000 0 0 0 1156483657.898351 pippo 1156483657.898351
ODOM 0.000000 0.000000 0.000000 0 0 0 1156483658.005336 pippo 1156483658.005336
ODOM 0.000000 0.000000 0.000000 0 0 0 1156483658.111323 pippo 1156483658.111323
ODOM 0.000000 0.000000 0.000000 0 0 0 1156483658.218304 pippo 1156483658.218304
ODOM 0.000000 0.000000 0.000000 0 0 0 1156483658.325285 pippo 1156483658.325285
ODOM 0.000000 0.000000 0.000000 0 0 0 1156483658.431269 pippo 1156483658.431269
ODOM 0.000000 0.000000 0.000000 0 0 0 1156483658.538255 pippo 1156483658.538255
ODOM 0.000000 0.000000 0.000000 0 0 0 1156483658.645240 pippo 1156483658.645240
ODOM 0.000000 0.000000 0.000000 0 0 0 1156483658.752222 pippo 1156483658.752222
ODOM 0.000000 0.000000 0.000000 0 0 0 1156483658.858205 pippo 1156483658.858205
ODOM 0.000000 0.000000 0.000000 0 0 0 1156483658.965217 pippo 1156483658.965217
ODOM 0.000000 0.000000 0.000000 0 0 0 1156483659.179158 pippo 1156483659.179158
ODOM 0.000000 0.000000 0.000000 0 0 0 1156483659.285141 pippo 1156483659.285141
ODOM 0.000000 0.000000 0.000000 0 0 0 1156483659.392122 pippo 1156483659.392122
ODOM 0.000000 0.000000 0.000000 0 0 0 1156483659.499107 pippo 1156483659.499107
ODOM 0.000000 0.000000 0.000000 0 0 0 1156483659.605094 pippo 1156483659.605094
ODOM 0.000000 0.000000 0.000000 0 0 0 1156483659.712076 pippo 1156483659.712076
ODOM 0.000000 0.000000 0.000000 0 0 0 1156483659.819058 pippo 1156483659.819058
ODOM 0.000000 0.000000 0.000000 0 0 0 1156483659.926042 pippo 1156483659.926042
ODOM 0.000000 0.000000 0.000000 0 0 0 1156483660.032027 pippo 1156483660.032027
ODOM 0.000000 0.000000 0.000000 0 0 0 1156483660.139011 pippo 1156483660.139011
ODOM 0.000000 0.000000 0.000000 0 0 0 1156483660.245992 pippo 1156483660.245992
ODOM 0.000000 0.000000 0.000000 0 0 0 1156483660.351979 pippo 1156483660.351979
ODOM 0.000000 0.000000 0.000000 0 0 0 1156483660.458960 pippo 1156483660.458960
ODOM 0.000000 0.000000 0.000000 0 0 0 1156483660.565944 pippo 1156483660.565944
ODOM 0.000000 0.000000 0.000000 0 0 0 1156483660.672928 pippo 1156483660.672928
ODOM 0.000000 0.000000 0.000000 0 0 0 1156483660.778913 pippo 1156483660.778913
ODOM 0.000000 0.000000 0.000000 0 0 0 1156483660.885895 pippo 1156483660.885895
ODOM 0.000000 0.000000 0.000000 0 0 0 1156483660.992890 pippo 1156483660.992890
ODOM 0.000000 0.000000 0.000000 0 0 0 1156483661.098865 pippo 1156483661.098865
ODOM 0.000000 0.000000 0.000000 0 0 0 1156483661.205849 pippo 1156483661.205849
ODOM 0.000000 0.000000 0.000000 0 0 0 1156483661.312830 pippo 1156483661.312830
ODOM 0.000000 0.000000 0.000000 0 0 0 1156483661.419841 pippo 1156483661.419841
ODOM 0.000000 0.000000 0.000000 0 0 0 1156483661.526814 pippo 1156483661.526814
ODOM 0.000000 0.000000 0.000000 0 0 0 1156483661.632784 pippo 1156483661.632784
ODOM 0.000000 0.000000 0.000000 0 0 0 1156483661.739775 pippo 1156483661.739775
ODOM 0.000000 0.000000 0.000000 0 0 0 1156483661.846750 pippo 1156483661.846750
ODOM 0.000000 0.000000 0.000000 0 0 0 1156483661.952736 pippo 1156483661.952736
ODOM 0.000000 0.000000 0.000000 0 0 0 1156483662.059720 pippo 1156483662.059720
ODOM 0.000000 0.000000 0.000000 0 0 0 1156483662.166701 pippo 1156483662.166701
ODOM 0.000000 0.000000 0.000000 0 0 0 1156483662.272687 pippo 1156483662.272687
ODOM 0.000000 0.000000 0.000000 0 0 0 1156483662.379671 pippo 1156483662.379671
ODOM 0.000000 0.000000 0.000000 0 0 0 1156483662.486653 pippo 1156483662.486653
ODOM 0.000000 0.000000 0.000000 0 0 0 1156483662.593638 pippo 1156483662.593638
ODOM 0.000000 0.000000 0.000000 0 0 0 1156483662.699646 pippo 1156483662.699646
ODOM 0.000000 0.000000 0.000000 0 0 0 1156483662.806605 pippo 1156483662.806605
ODOM 0.000000 0.000000 0.000000 0 0 0 1156483662.913600 pippo 1156483662.913600
ODOM 0.000000 0.000000 0.000000 0 0 0 1156483663.019572 pippo 1156483663.019572
ODOM 0.000000 0.000000 0.000000 0 0 0 1156483663.126556 pippo 1156483663.126556
ODOM 0.000000 0.000000 0.000000 0 0 0 1156483663.233540 pippo 1156483663.233540
ODOM 0.000000 0.000000 0.000000 0 0 0 1156483663.340732 pippo 1156483663.340732
ODOM 0.000000 0.000000 0.000000 0 0 0 1156483663.446526 pippo 1156483663.446526
ODOM 0.000000 0.000000 0.000000 0 0 0 1156483663.553493 pippo 1156483663.553493
ODOM 0.000000 0.000000 0.000000 0 0 0 1156483663.660474 pippo 1156483663.660474
ODOM 0.000000 0.000000 0.000000 0 0 0 1156483663.766457 pippo 1156483663.766457
ODOM 0.000000 0.000000 0.000000 0 0 0 1156483663.873443 pippo 1156483663.873443
ODOM 0.000000 0.000000 0.000000 0 0 0 1156483663.980426 pippo 1156483663.980426
ODOM 0.000000 0.000000 0.000000 0 0 0 1156483664.087419 pippo 1156483664.087419
ODOM 0.000000 0.000000 0.000000 0 0 0 1156483664.193392 pippo 1156483664.193392
ODOM 0.000000 0.000000 0.000000 0 0 0 1156483664.300376 pippo 1156483664.300376
ODOM 0.000000 0.000000 0.000000 0 0 0 1156483664.407360 pippo 1156483664.407360
ODOM 0.000000 0.000000 0.000000 0 0 0 1156483664.514347 pippo 1156483664.514347
ODOM 0.000000 0.000000 0.000000 0 0 0 1156483664.620330 pippo 1156483664.620330
ODOM 0.000000 0.000000 0.000000 0 0 0 1156483664.727311 pippo 1156483664.727311
ODOM 0.000000 0.000000 0.000000 0 0 0 1156483664.834354 pippo 1156483664.834354
ODOM 0.000000 0.000000 0.000000 0 0 0 1156483664.941280 pippo 1156483664.941280
ODOM 0.000000 0.000000 0.000000 0 0 0 1156483665.047263 pippo 1156483665.047263
ODOM 0.000000 0.000000 0.000000 0 0 0 1156483665.154248 pippo 1156483665.154248
ODOM 0.000000 0.000000 0.000000 0 0 0 1156483665.261251 pippo 1156483665.261251
ODOM 0.000000 0.000000 0.000000 0 0 0 1156483665.367214 pippo 1156483665.367214
ODOM 0.000000 0.000000 0.000000 0 0 0 1156483665.474201 pippo 1156483665.474201
ODOM 0.000000 0.000000 0.000000 0 0 0 1156483665.581181 pippo 1156483665.581181
ODOM 0.000000 0.000000 0.000000 0 0 0 1156483665.687165 pippo 1156483665.687165
ODOM 0.000000 0.000000 0.000000 0 0 0 1156483665.794150 pippo 1156483665.794150
ODOM 0.000000 0.000000 0.000000 0 0 0 1156483665.901133 pippo 1156483665.901133
ODOM 0.000000 0.000000 0.000000 0 0 0 1156483666.008116 pippo 1156483666.008116
ODOM 0.000000 0.000000 0.000000 0 0 0 1156483666.114104 pippo 1156483666.114104
ODOM 0.000000 0.000000 0.000000 0 0 0 1156483666.221085 pippo 1156483666.221085
ODOM 0.000000 0.000000 0.000000 0 0 0 1156483666.328069 pippo 1156483666.328069
ODOM 0.000000 0.000000 0.000000 0 0 0 1156483666.435053 pippo 1156483666.435053
ODOM 0.000000 0.000000 0.000000 0 0 0 1156483666.541036 pippo 1156483666.541036
ODOM 0.000000 0.000000 0.000000 0 0 0 1156483666.648021 pippo 1156483666.648021
ODOM 0.000000 0.000000 0.000000 0 0 0 1156483666.755197 pippo 1156483666.755197
ODOM 0.000000 0.000000 0.000000 0 0 0 1156483666.860988 pippo 1156483666.860988
ODOM 0.000000 0.000000 0.000000 0 0 0 1156483666.967973 pippo 1156483666.967973
ODOM 0.000000 0.000000 0.000000 0 0 0 1156483667.074956 pippo 1156483667.074956
ODOM 0.000000 0.000000 0.000000 0 0 0 1156483667.181940 pippo 1156483667.181940
ODOM 0.000000 0.000000 0.000000 0 0 0 1156483667.287924 pippo 1156483667.287924
ODOM 0.000000 0.000000 0.000000 0 0 0 1156483667.394906 pippo 1156483667.394906
ODOM 0.000000 0.000000 0.000000 0 0 0 1156483667.501892 pippo 1156483667.501892
ODOM 0.000000 0.000000 0.000000 0 0 0 1156483667.608875 pippo 1156483667.608875
ODOM 0.000000 0.000000 0.000000 0 0 0 1156483667.714887 pippo 1156483667.714887
ODOM 0.000000 0.000000 0.000000 0 0 0 1156483667.821855 pippo 1156483667.821855
ODOM 0.000000 0.000000 0.000000 0 0 0 1156483667.928825 pippo 1156483667.928825
ODOM 0.000000 0.000000 0.000000 0 0 0 1156483668.034809 pippo 1156483668.034809
ODOM 0.000000 0.000000 0.000000 0 0 0 1156483668.141793 pippo 1156483668.141793
ODOM 0.000000 0.000000 0.000000 0 0 0 1156483668.248778 pippo 1156483668.248778
ODOM 0.000000 0.000000 0.000000 0 0 0 1156483668.355790 pippo 1156483668.355790
ODOM 0.000000 0.000000 0.000000 0 0 0 1156483668.461744 pippo 1156483668.461744
ODOM 0.000000 0.000000 0.000000 0 0 0 1156483668.568729 pippo 1156483668.568729
ODOM 0.000000 0.000000 0.000000 0 0 0 1156483668.675723 pippo 1156483668.675723
ODOM 0.000000 0.000000 0.000000 0 0 0 1156483668.782697 pippo 1156483668.782697
ODOM 0.000000 0.000000 0.000000 0 0 0 1156483668.888682 pippo 1156483668.888682
ODOM 0.000000 0.000000 0.000000 0 0 0 1156483668.995664 pippo 1156483668.995664
ODOM 0.000000 0.000000 0.000000 0 0 0 1156483669.102646 pippo 1156483669.102646
ODOM 0.000000 0.000000 0.000000 0 0 0 1156483669.208632 pippo 1156483669.208632
ODOM 0.000000 0.000000 0.000000 0 0 0 1156483669.315615 pippo 1156483669.315615
ODOM 0.000000 0.000000 0.000000 0 0 0 1156483669.422599 pippo 1156483669.422599
ODOM 0.000000 0.000000 0.000000 0 0 0 1156483669.529581 pippo 1156483669.529581
ODOM 0.000000 0.000000 0.000000 0 0 0 1156483669.635807 pippo 1156483669.635807
ODOM 0.000000 0.000000 0.000000 0 0 0 1156483669.742551 pippo 1156483669.742551
ODOM 0.000000 0.000000 0.000000 0 0 0 1156483669.849533 pippo 1156483669.849533
ODOM 0.000000 0.000000 0.000000 0 0 0 1156483669.955519 pippo 1156483669.955519
ODOM 0.000000 0.000000 0.000000 0 0 0 1156483670.062502 pippo 1156483670.062502
ODOM 0.000000 0.000000 0.000000 0 0 0 1156483670.169485 pippo 1156483670.169485
ODOM 0.000000 0.000000 0.000000 0 0 0 1156483670.276472 pippo 1156483670.276472
ODOM 0.000000 0.000000 0.000000 0 0 0 1156483670.382452 pippo 1156483670.382452
ODOM 0.000000 0.000000 0.000000 0 0 0 1156483670.489437 pippo 1156483670.489437
ODOM 0.000000 0.000000 0.000000 0 0 0 1156483670.596431 pippo 1156483670.596431
ODOM 0.000000 0.000000 0.000000 0 0 0 1156483670.702406 pippo 1156483670.702406
ODOM 0.000000 0.000000 0.000000 0 0 0 1156483670.809389 pippo 1156483670.809389
ODOM 0.000000 0.000000 0.000000 0 0 0 1156483670.916372 pippo 1156483670.916372
ODOM 0.000000 0.000000 0.000000 0 0 0 1156483671.023355 pippo 1156483671.023355
ODOM 0.000000 0.000000 0.000000 0 0 0 1156483671.129340 pippo 1156483671.129340
ODOM 0.000000 0.000000 0.000000 0 0 0 1156483671.236324 pippo 1156483671.236324
ODOM 0.000000 0.000000 0.000000 0 0 0 1156483671.343307 pippo 1156483671.343307
ODOM 0.000000 0.000000 0.000000 0 0 0 1156483671.449290 pippo 1156483671.449290
ODOM 0.000000 0.000000 0.000000 0 0 0 1156483671.556287 pippo 1156483671.556287
ODOM 0.000000 0.000000 0.000000 0 0 0 1156483671.663260 pippo 1156483671.663260
ODOM 0.000000 0.000000 0.000000 0 0 0 1156483671.770243 pippo 1156483671.770243
ODOM 0.000000 0.000000 0.000000 0 0 0 1156483671.876225 pippo 1156483671.876225
ODOM 0.000000 0.000000 0.000000 0 0 0 1156483671.983212 pippo 1156483671.983212
ODOM 0.000000 0.000000 0.000000 0 0 0 1156483672.090192 pippo 1156483672.090192
ODOM 0.000000 0.000000 0.000000 0 0 0 1156483672.197177 pippo 1156483672.197177
ODOM 0.000000 0.000000 0.000000 0 0 0 1156483672.303161 pippo 1156483672.303161
ODOM 0.000000 0.000000 0.000000 0 0 0 1156483672.410145 pippo 1156483672.410145
ODOM 0.000000 0.000000 0.000000 0 0 0 1156483672.517345 pippo 1156483672.517345
ODOM 0.000000 0.000000 0.000000 0 0 0 1156483672.623113 pippo 1156483672.623113
ODOM 0.000000 0.000000 0.000000 0 0 0 1156483672.730098 pippo 1156483672.730098
ODOM 0.000000 0.000000 0.000000 0 0 0 1156483672.837078 pippo 1156483672.837078
ODOM 0.000000 0.000000 0.000000 0 0 0 1156483672.944063 pippo 1156483672.944063
ODOM 0.000000 0.000000 0.000000 0 0 0 1156483673.050048 pippo 1156483673.050048
ODOM 0.000000 0.000000 0.000000 0 0 0 1156483673.157032 pippo 1156483673.157032
ODOM 0.000000 0.000000 0.000000 0 0 0 1156483673.264013 pippo 1156483673.264013
ODOM 0.000000 0.000000 0.000000 0 0 0 1156483673.369999 pippo 1156483673.369999
ODOM 0.000000 0.000000 0.000000 0 0 0 1156483673.476983 pippo 1156483673.476983
ODOM 0.000000 0.000000 0.000000 0 0 0 1156483673.583965 pippo 1156483673.583965
ODOM 0.000000 0.000000 0.000000 0 0 0 1156483673.689949 pippo 1156483673.689949
ODOM 0.000000 0.000000 0.000000 0 0 0 1156483673.796934 pippo 1156483673.796934
ODOM 0.000000 0.000000 0.000000 0 0 0 1156483673.903917 pippo 1156483673.903917
ODOM 0.000000 0.000000 0.000000 0 0 0 1156483674.010911 pippo 1156483674.010911
ODOM 0.000000 0.000000 0.000000 0 0 0 1156483674.116902 pippo 1156483674.116902
ODOM 0.000000 0.000000 0.000000 0 0 0 1156483674.223868 pippo 1156483674.223868
ODOM 0.000000 0.000000 0.000000 0 0 0 1156483674.330866 pippo 1156483674.330866
ODOM 0.000000 0.000000 0.000000 0 0 0 1156483674.437852 pippo 1156483674.437852
ODOM 0.000000 0.000000 0.000000 0 0 0 1156483674.543820 pippo 1156483674.543820
ODOM 0.000000 0.000000 0.000000 0 0 0 1156483674.650818 pippo 1156483674.650818
ODOM 0.000000 0.000000 0.000000 0 0 0 1156483674.757786 pippo 1156483674.757786
ODOM 0.000000 0.000000 0.000000 0 0 0 1156483674.864788 pippo 1156483674.864788
ODOM 0.000000 0.000000 0.000000 0 0 0 1156483674.970768 pippo 1156483674.970768
ODOM 0.000000 0.000000 0.000000 0 0 0 1156483675.077740 pippo 1156483675.077740
ODOM 0.000000 0.000000 0.000000 0 0 0 1156483675.184738 pippo 1156483675.184738
ODOM 0.000000 0.000000 0.000000 0 0 0 1156483675.290719 pippo 1156483675.290719
ODOM 0.000000 0.000000 0.000000 0 0 0 1156483675.397691 pippo 1156483675.397691
ODOM 0.000000 0.000000 0.000000 0 0 0 1156483675.504693 pippo 1156483675.504693
ODOM 0.000000 0.000000 0.000000 0 0 0 1156483675.611668 pippo 1156483675.611668
ODOM 0.000000 0.000000 0.000000 0 0 0 1156483675.717641 pippo 1156483675.717641
ODOM 0.000000 0.000000 0.000000 0 0 0 1156483675.824644 pippo 1156483675.824644
ODOM 0.000000 0.000000 0.000000 0 0 0 1156483675.932049 pippo 1156483675.932049
ODOM 0.000000 0.000000 0.000000 0 0 0 1156483676.037598 pippo 1156483676.037598
ODOM 0.000000 0.000000 0.000000 0 0 0 1156483676.144607 pippo 1156483676.144607
ODOM 0.000000 0.000000 0.000000 0 0 0 1156483676.251568 pippo 1156483676.251568
ODOM 0.000000 0.000000 0.000000 0 0 0 1156483676.358552 pippo 1156483676.358552
ODOM 0.000000 0.000000 0.000000 0 0 0 1156483676.464545 pippo 1156483676.464545
ODOM 0.000000 0.000000 0.000000 0 0 0 1156483676.571516 pippo 1156483676.571516
ODOM 0.000000 0.000000 0.000000 0 0 0 1156483676.678495 pippo 1156483676.678495
ODOM 0.000000 0.000000 0.000000 0 0 0 1156483676.785478 pippo 1156483676.785478
ODOM 0.000000 0.000000 0.000000 0 0 0 1156483676.891464 pippo 1156483676.891464
ODOM 0.000000 0.000000 0.000000 0 0 0 1156483676.998449 pippo 1156483676.998449
ODOM 0.000000 0.000000 0.000000 0 0 0 1156483677.105429 pippo 1156483677.105429
ODOM 0.000000 0.000000 0.000000 0 0 0 1156483677.211413 pippo 1156483677.211413
ODOM 0.000000 0.000000 0.000000 0 0 0 1156483677.318400 pippo 1156483677.318400
ODOM 0.000000 0.000000 0.000000 0 0 0 1156483677.425382 pippo 1156483677.425382
ODOM 0.000000 0.000000 0.000000 0 0 0 1156483677.531366 pippo 1156483677.531366
ODOM 0.000000 0.000000 0.000000 0 0 0 1156483677.638350 pippo 1156483677.638350
ODOM 0.000000 0.000000 0.000000 0 0 0 1156483677.745335 pippo 1156483677.745335
ODOM 0.000000 0.000000 0.000000 0 0 0 1156483677.852574 pippo 1156483677.852574
ODOM 0.000000 0.000000 0.000000 0 0 0 1156483677.958318 pippo 1156483677.958318
ODOM 0.000000 0.000000 0.000000 0 0 0 1156483678.065287 pippo 1156483678.065287
ODOM 0.000000 0.000000 0.000000 0 0 0 1156483678.172269 pippo 1156483678.172269
ODOM 0.000000 0.000000 0.000000 0 0 0 1156483678.279266 pippo 1156483678.279266
ODOM 0.000000 0.000000 0.000000 0 0 0 1156483678.385238 pippo 1156483678.385238
ODOM 0.000000 0.000000 0.000000 0 0 0 1156483678.492221 pippo 1156483678.492221
ODOM 0.000000 0.000000 0.000000 0 0 0 1156483678.599204 pippo 1156483678.599204
ODOM 0.000000 0.000000 0.000000 0 0 0 1156483678.705187 pippo 1156483678.705187
ODOM 0.000000 0.000000 0.000000 0 0 0 1156483678.812172 pippo 1156483678.812172
ODOM 0.000000 0.000000 0.000000 0 0 0 1156483678.919156 pippo 1156483678.919156
ODOM 0.000000 0.000000 0.000000 0 0 0 1156483679.026138 pippo 1156483679.026138
ODOM 0.000000 0.000000 0.000000 0 0 0 1156483679.132125 pippo 1156483679.132125
ODOM 0.000000 0.000000 0.000000 0 0 0 1156483679.239107 pippo 1156483679.239107
ODOM 0.000000 0.000000 0.000000 0 0 0 1156483679.346090 pippo 1156483679.346090
ODOM 0.000000 0.000000 0.000000 0 0 0 1156483679.452073 pippo 1156483679.452073
ODOM 0.000000 0.000000 0.000000 0 0 0 1156483679.559058 pippo 1156483679.559058
ODOM 0.000000 0.000000 0.000000 0 0 0 1156483679.666043 pippo 1156483679.666043
ODOM 0.000000 0.000000 0.000000 0 0 0 1156483679.773024 pippo 1156483679.773024
ODOM 0.000000 0.000000 0.000000 0 0 0 1156483679.879010 pippo 1156483679.879010
ODOM 0.000000 0.000000 0.000000 0 0 0 1156483679.985994 pippo 1156483679.985994
ODOM 0.000000 0.000000 0.000000 0 0 0 1156483680.092975 pippo 1156483680.092975
ODOM 0.000000 0.000000 0.000000 0 0 0 1156483680.198959 pippo 1156483680.198959
ODOM 0.000000 0.000000 0.000000 0 0 0 1156483680.306190 pippo 1156483680.306190
ODOM 0.000000 0.000000 0.000000 0 0 0 1156483680.412930 pippo 1156483680.412930
ODOM 0.000000 0.000000 0.000000 0 0 0 1156483680.519936 pippo 1156483680.519936
ODOM 0.000000 0.000000 0.000000 0 0 0 1156483680.625895 pippo 1156483680.625895
ODOM 0.000000 0.000000 0.000000 0 0 0 1156483680.732881 pippo 1156483680.732881
ODOM 0.000000 0.000000 0.000000 0 0 0 1156483680.839865 pippo 1156483680.839865
ODOM 0.000000 0.000000 0.000000 0 0 0 1156483680.946845 pippo 1156483680.946845
ODOM 0.000000 0.000000 0.000000 0 0 0 1156483681.052831 pippo 1156483681.052831
ODOM 0.000000 0.000000 0.000000 0 0 0 1156483681.159816 pippo 1156483681.159816
ODOM 0.000000 0.000000 0.000000 0 0 0 1156483681.266797 pippo 1156483681.266797
ODOM 0.000000 0.000000 0.000000 0 0 0 1156483681.372781 pippo 1156483681.372781
ODOM 0.000000 0.000000 0.000000 0 0 0 1156483681.479765 pippo 1156483681.479765
ODOM 0.000000 0.000000 0.000000 0 0 0 1156483681.586775 pippo 1156483681.586775
ODOM 0.000000 0.000000 0.000000 0 0 0 1156483681.693732 pippo 1156483681.693732
ODOM 0.000000 0.000000 0.000000 0 0 0 1156483681.799719 pippo 1156483681.799719
ODOM 0.000000 0.000000 0.000000 0 0 0 1156483681.906700 pippo 1156483681.906700
ODOM 0.000000 0.000000 0.000000 0 0 0 1156483682.013683 pippo 1156483682.013683
ODOM 0.000000 0.000000 0.000000 0 0 0 1156483682.119668 pippo 1156483682.119668
ODOM 0.000000 0.000000 0.000000 0 0 0 1156483682.226664 pippo 1156483682.226664
ODOM 0.000000 0.000000 0.000000 0 0 0 1156483682.333643 pippo 1156483682.333643
ODOM 0.000000 0.000000 0.000000 0 0 0 1156483682.440619 pippo 1156483682.440619
ODOM 0.000000 0.000000 0.000000 0 0 0 1156483682.546604 pippo 1156483682.546604
ODOM 0.000000 0.000000 0.000000 0 0 0 1156483682.653589 pippo 1156483682.653589
ODOM 0.000000 0.000000 0.000000 0 0 0 1156483682.760570 pippo 1156483682.760570
ODOM 0.000000 0.000000 0.000000 0 0 0 1156483682.867553 pippo 1156483682.867553
ODOM 0.000000 0.000000 0.000000 0 0 0 1156483682.973539 pippo 1156483682.973539
ODOM 0.000000 0.000000 0.000000 0 0 0 1156483683.080526 pippo 1156483683.080526
ODOM 0.000000 0.000000 0.000000 0 0 0 1156483683.187505 pippo 1156483683.187505
ODOM 0.000000 0.000000 0.000000 0 0 0 1156483683.293489 pippo 1156483683.293489
ODOM 0.000000 0.000000 0.000000 0 0 0 1156483683.400472 pippo 1156483683.400472
ODOM 0.000000 0.000000 0.000000 0 0 0 1156483683.507458 pippo 1156483683.507458
ODOM 0.000000 0.000000 0.000000 0 0 0 1156483683.614441 pippo 1156483683.614441
ODOM 0.000000 0.000000 0.000000 0 0 0 1156483683.720425 pippo 1156483683.720425
ODOM 0.000000 0.000000 0.000000 0 0 0 1156483683.827410 pippo 1156483683.827410
ODOM 0.000000 0.000000 0.000000 0 0 0 1156483683.934391 pippo 1156483683.934391
ODOM 0.000000 0.000000 0.000000 0 0 0 1156483684.040375 pippo 1156483684.040375
ODOM 0.000000 0.000000 0.000000 0 0 0 1156483684.148517 pippo 1156483684.148517
ODOM 0.000000 0.000000 0.000000 0 0 0 1156483684.254360 pippo 1156483684.254360
ODOM 0.000000 0.000000 0.000000 0 0 0 1156483684.361329 pippo 1156483684.361329
ODOM 0.000000 0.000000 0.000000 0 0 0 1156483684.467311 pippo 1156483684.467311
ODOM 0.000000 0.000000 0.000000 0 0 0 1156483684.574297 pippo 1156483684.574297
ODOM 0.000000 0.000000 0.000000 0 0 0 1156483684.681280 pippo 1156483684.681280
ODOM 0.000000 0.000000 0.000000 0 0 0 1156483684.787263 pippo 1156483684.787263
ODOM 0.000000 0.000000 0.000000 0 0 0 1156483684.894247 pippo 1156483684.894247
ODOM 0.000000 0.000000 0.000000 0 0 0 1156483685.001231 pippo 1156483685.001231
ODOM 0.000000 0.000000 0.000000 0 0 0 1156483685.108213 pippo 1156483685.108213
ODOM 0.000000 0.000000 0.000000 0 0 0 1156483685.214197 pippo 1156483685.214197
ODOM 0.000000 0.000000 0.000000 0 0 0 1156483685.321180 pippo 1156483685.321180
ODOM 0.000000 0.000000 0.000000 0 0 0 1156483685.428164 pippo 1156483685.428164
ODOM 0.000000 0.000000 0.000000 0 0 0 1156483685.535148 pippo 1156483685.535148
ODOM 0.000000 0.000000 0.000000 0 0 0 1156483685.641137 pippo 1156483685.641137
ODOM 0.000000 0.000000 0.000000 0 0 0 1156483685.748118 pippo 1156483685.748118
ODOM 0.000000 0.000000 0.000000 0 0 0 1156483685.855099 pippo 1156483685.855099
ODOM 0.000000 0.000000 0.000000 0 0 0 1156483685.961083 pippo 1156483685.961083
ODOM 0.000000 0.000000 0.000000 0 0 0 1156483686.068207 pippo 1156483686.068207
ODOM 0.000000 0.000000 0.000000 0 0 0 1156483686.175054 pippo 1156483686.175054
ODOM 0.000000 0.000000 0.000000 0 0 0 1156483686.282036 pippo 1156483686.282036
ODOM 0.000000 0.000000 0.000000 0 0 0 1156483686.388019 pippo 1156483686.388019
ODOM 0.000000 0.000000 0.000000 0 0 0 1156483686.495004 pippo 1156483686.495004
ODOM 0.000000 0.000000 0.000000 0 0 0 1156483686.601985 pippo 1156483686.601985
ODOM 0.000000 0.000000 0.000000 0 0 0 1156483686.708344 pippo 1156483686.708344
ODOM 0.000000 0.000000 0.000000 0 0 0 1156483686.814955 pippo 1156483686.814955
ODOM 0.000000 0.000000 0.000000 0 0 0 1156483686.921938 pippo 1156483686.921938
ODOM 0.000000 0.000000 0.000000 0 0 0 1156483687.028924 pippo 1156483687.028924
ODOM 0.000000 0.000000 0.000000 0 0 0 1156483687.134907 pippo 1156483687.134907
ODOM 0.000000 0.000000 0.000000 0 0 0 1156483687.241889 pippo 1156483687.241889
ODOM 0.000000 0.000000 0.000000 0 0 0 1156483687.348872 pippo 1156483687.348872
ODOM 0.000000 0.000000 0.000000 0 0 0 1156483687.454871 pippo 1156483687.454871
ODOM 0.000000 0.000000 0.000000 0 0 0 1156483687.561843 pippo 1156483687.561843
ODOM 0.000000 0.000000 0.000000 0 0 0 1156483687.668824 pippo 1156483687.668824
ODOM 0.000000 0.000000 0.000000 0 0 0 1156483687.775807 pippo 1156483687.775807
ODOM 0.000000 0.000000 0.000000 0 0 0 1156483687.881791 pippo 1156483687.881791
ODOM 0.000000 0.000000 0.000000 0 0 0 1156483687.988783 pippo 1156483687.988783
ODOM 0.000000 0.000000 0.000000 0 0 0 1156483688.095761 pippo 1156483688.095761
ODOM 0.000000 0.000000 0.000000 0 0 0 1156483688.202744 pippo 1156483688.202744
ODOM 0.000000 0.000000 0.000000 0 0 0 1156483688.308728 pippo 1156483688.308728
ODOM 0.000000 0.000000 0.000000 0 0 0 1156483688.415710 pippo 1156483688.415710
ODOM 0.000000 0.000000 0.000000 0 0 0 1156483688.522694 pippo 1156483688.522694
ODOM 0.000000 0.000000 0.000000 0 0 0 1156483688.628777 pippo 1156483688.628777
ODOM 0.000000 0.000000 0.000000 0 0 0 1156483688.735672 pippo 1156483688.735672
ODOM 0.000000 0.000000 0.000000 0 0 0 1156483688.842645 pippo 1156483688.842645
ODOM 0.000000 0.000000 0.000000 0 0 0 1156483688.949630 pippo 1156483688.949630
ODOM 0.000000 0.000000 0.000000 0 0 0 1156483689.055615 pippo 1156483689.055615
ODOM 0.000000 0.000000 0.000000 0 0 0 1156483689.163119 pippo 1156483689.163119
ODOM 0.000000 0.000000 0.000000 0 0 0 1156483689.269582 pippo 1156483689.269582
ODOM 0.000000 0.000000 0.000000 0 0 0 1156483689.375566 pippo 1156483689.375566
ODOM 0.000000 0.000000 0.000000 0 0 0 1156483689.482550 pippo 1156483689.482550
ODOM 0.000000 0.000000 0.000000 0 0 0 1156483689.589532 pippo 1156483689.589532
ODOM 0.000000 0.000000 0.000000 0 0 0 1156483689.696517 pippo 1156483689.696517
ODOM 0.000000 0.000000 0.000000 0 0 0 1156483689.802504 pippo 1156483689.802504
ODOM 0.000000 0.000000 0.000000 0 0 0 1156483689.909495 pippo 1156483689.909495
ODOM 0.000000 0.000000 0.000000 0 0 0 1156483690.016467 pippo 1156483690.016467
ODOM 0.000000 0.000000 0.000000 0 0 0 1156483690.122452 pippo 1156483690.122452
ODOM 0.000000 0.000000 0.000000 0 0 0 1156483690.229437 pippo 1156483690.229437
ODOM 0.000000 0.000000 0.000000 0 0 0 1156483690.336421 pippo 1156483690.336421
ODOM 0.000000 0.000000 0.000000 0 0 0 1156483690.443429 pippo 1156483690.443429
ODOM 0.000000 0.000000 0.000000 0 0 0 1156483690.549391 pippo 1156483690.549391
ODOM 0.000000 0.000000 0.000000 0 0 0 1156483690.656372 pippo 1156483690.656372
ODOM 0.000000 0.000000 0.000000 0 0 0 1156483690.763355 pippo 1156483690.763355
ODOM 0.000000 0.000000 0.000000 0 0 0 1156483690.870340 pippo 1156483690.870340
ODOM 0.000000 0.000000 0.000000 0 0 0 1156483690.976323 pippo 1156483690.976323
ODOM 0.000000 0.000000 0.000000 0 0 0 1156483691.083322 pippo 1156483691.083322
ODOM 0.000000 0.000000 0.000954 0 0 0 1156483691.190289 pippo 1156483691.190289
ODOM 0.000000 0.000000 0.003259 0 0 0 1156483691.297273 pippo 1156483691.297273
ODOM 0.000000 0.000000 0.004602 0 0 0 1156483691.403258 pippo 1156483691.403258
ODOM 0.000000 0.000000 0.005298 0 0 0 1156483691.510240 pippo 1156483691.510240
ODOM 0.000000 0.000000 0.006136 0 0 0 1156483691.617224 pippo 1156483691.617224
ODOM 0.000000 0.000000 0.006136 0 0 0 1156483691.723208 pippo 1156483691.723208
ODOM 0.000000 0.000000 0.006136 0 0 0 1156483691.830352 pippo 1156483691.830352
ODOM 0.000000 0.000000 0.006136 0 0 0 1156483691.937175 pippo 1156483691.937175
ODOM 0.000000 0.000000 0.006136 0 0 0 1156483692.043159 pippo 1156483692.043159
ODOM 0.000000 0.000000 0.006136 0 0 0 1156483692.150143 pippo 1156483692.150143
ODOM 0.000000 0.000000 0.006136 0 0 0 1156483692.364373 pippo 1156483692.364373
ODOM 0.000000 0.000000 0.006136 0 0 0 1156483692.470093 pippo 1156483692.470093
ODOM 0.000000 0.000000 0.006136 0 0 0 1156483692.577090 pippo 1156483692.577090
ODOM 0.000000 0.000000 0.006136 0 0 0 1156483692.684061 pippo 1156483692.684061
ODOM 0.000000 0.000000 0.006136 0 0 0 1156483692.791046 pippo 1156483692.791046
ODOM 0.000000 0.000000 0.006136 0 0 0 1156483692.897031 pippo 1156483692.897031
ODOM 0.000000 0.000000 0.006136 0 0 0 1156483693.004014 pippo 1156483693.004014
ODOM 0.000000 0.000000 0.006136 0 0 0 1156483693.111000 pippo 1156483693.111000
ODOM 0.000000 0.000000 0.006136 0 0 0 1156483693.216980 pippo 1156483693.216980
ODOM 0.000000 0.000000 0.006136 0 0 0 1156483693.323964 pippo 1156483693.323964
ODOM 0.000000 0.000000 0.006136 0 0 0 1156483693.430950 pippo 1156483693.430950
ODOM 0.000000 0.000000 0.006136 0 0 0 1156483693.537931 pippo 1156483693.537931
ODOM 0.000000 0.000000 0.006136 0 0 0 1156483693.643917 pippo 1156483693.643917
ODOM 0.000000 0.000000 0.006136 0 0 0 1156483693.751185 pippo 1156483693.751185
ODOM 0.000000 0.000000 0.006136 0 0 0 1156483693.857884 pippo 1156483693.857884
ODOM 0.000000 0.000000 0.006136 0 0 0 1156483693.963869 pippo 1156483693.963869
ODOM 0.000000 0.000000 0.006136 0 0 0 1156483694.070852 pippo 1156483694.070852
ODOM 0.000000 0.000000 0.006136 0 0 0 1156483694.177834 pippo 1156483694.177834
ODOM 0.000000 0.000000 0.006136 0 0 0 1156483694.284818 pippo 1156483694.284818
ODOM 0.000000 0.000000 0.006136 0 0 0 1156483694.390804 pippo 1156483694.390804
ODOM 0.000000 0.000000 0.006136 0 0 0 1156483694.497790 pippo 1156483694.497790
ODOM 0.000000 0.000000 0.006136 0 0 0 1156483694.604769 pippo 1156483694.604769
ODOM 0.000000 0.000000 0.006136 0 0 0 1156483694.711753 pippo 1156483694.711753
ODOM 0.000000 0.000000 0.006136 0 0 0 1156483694.817767 pippo 1156483694.817767
ODOM 0.000000 0.000000 0.006136 0 0 0 1156483694.924721 pippo 1156483694.924721
ODOM 0.000000 0.000000 0.007615 0 0 0 1156483695.031706 pippo 1156483695.031706
ODOM 0.000000 0.000000 0.007670 0 0 0 1156483695.137689 pippo 1156483695.137689
ODOM 0.000000 0.000000 0.007670 0 0 0 1156483695.244674 pippo 1156483695.244674
ODOM 0.000000 0.000000 0.007670 0 0 0 1156483695.351656 pippo 1156483695.351656
ODOM 0.000000 0.000000 0.007670 0 0 0 1156483695.457642 pippo 1156483695.457642
ODOM 0.000000 0.000000 0.007670 0 0 0 1156483695.564623 pippo 1156483695.564623
ODOM 0.000000 0.000000 0.007670 0 0 0 1156483695.672157 pippo 1156483695.672157
ODOM 0.000000 0.000000 0.007670 0 0 0 1156483695.778591 pippo 1156483695.778591
ODOM 0.000000 0.000000 0.007670 0 0 0 1156483695.884575 pippo 1156483695.884575
ODOM 0.000000 0.000000 0.007670 0 0 0 1156483695.991560 pippo 1156483695.991560
ODOM 0.000000 0.000000 0.007670 0 0 0 1156483696.098543 pippo 1156483696.098543
ODOM 0.000000 0.000000 0.007670 0 0 0 1156483696.205526 pippo 1156483696.205526
ODOM 0.000000 0.000000 0.007670 0 0 0 1156483696.311509 pippo 1156483696.311509
ODOM 0.000000 0.000000 0.007670 0 0 0 1156483696.418503 pippo 1156483696.418503
ODOM 0.000000 0.000000 0.007670 0 0 0 1156483696.525477 pippo 1156483696.525477
ODOM 0.000000 0.000000 0.007670 0 0 0 1156483696.632463 pippo 1156483696.632463
ODOM 0.000000 0.000000 0.007670 0 0 0 1156483696.738446 pippo 1156483696.738446
ODOM 0.000000 0.000000 0.007670 0 0 0 1156483696.846348 pippo 1156483696.846348
ODOM 0.000000 0.000000 0.007670 0 0 0 1156483696.952431 pippo 1156483696.952431
ODOM 0.000000 0.000000 0.007670 0 0 0 1156483697.058400 pippo 1156483697.058400
ODOM 0.000000 0.000000 0.010243 0 0 0 1156483697.165382 pippo 1156483697.165382
ODOM 0.002000 0.000000 0.015519 0 0 0 1156483697.272365 pippo 1156483697.272365
ODOM 0.011000 0.000000 0.021290 0 0 0 1156483697.379350 pippo 1156483697.379350
ODOM 0.030000 0.001000 0.029179 0 0 0 1156483697.485333 pippo 1156483697.485333
ODOM 0.056000 0.001000 0.036900 0 0 0 1156483697.592327 pippo 1156483697.592327
ODOM 0.084000 0.002000 0.041578 0 0 0 1156483697.699299 pippo 1156483697.699299
ODOM 0.111000 0.004000 0.044494 0 0 0 1156483697.805286 pippo 1156483697.805286
ODOM 0.138000 0.005000 0.048739 0 0 0 1156483697.912269 pippo 1156483697.912269
ODOM 0.164000 0.006000 0.053335 0 0 0 1156483698.019250 pippo 1156483698.019250
ODOM 0.187000 0.008000 0.056221 0 0 0 1156483698.126238 pippo 1156483698.126238
ODOM 0.201000 0.008000 0.056602 0 0 0 1156483698.232221 pippo 1156483698.232221
ODOM 0.206000 0.009000 0.050829 0 0 0 1156483698.339204 pippo 1156483698.339204
ODOM 0.206000 0.009000 0.046020 0 0 0 1156483698.446186 pippo 1156483698.446186
ODOM 0.207000 0.009000 0.046186 0 0 0 1156483698.552169 pippo 1156483698.552169
ODOM 0.207000 0.009000 0.047554 0 0 0 1156483698.659166 pippo 1156483698.659166
ODOM 0.208000 0.009000 0.052156 0 0 0 1156483698.873124 pippo 1156483698.873124
ODOM 0.208000 0.009000 0.052156 0 0 0 1156483698.979108 pippo 1156483698.979108
ODOM 0.208000 0.009000 0.052156 0 0 0 1156483699.086090 pippo 1156483699.086090
ODOM 0.208000 0.009000 0.052156 0 0 0 1156483699.193072 pippo 1156483699.193072
ODOM 0.208000 0.009000 0.052159 0 0 0 1156483699.301078 pippo 1156483699.301078
ODOM 0.208000 0.009000 0.053690 0 0 0 1156483699.406042 pippo 1156483699.406042
ODOM 0.208000 0.009000 0.053690 0 0 0 1156483699.513147 pippo 1156483699.513147
ODOM 0.208000 0.009000 0.053690 0 0 0 1156483699.620007 pippo 1156483699.620007
ODOM 0.208000 0.009000 0.053690 0 0 0 1156483699.725992 pippo 1156483699.725992
ODOM 0.208000 0.009000 0.053690 0 0 0 1156483699.832977 pippo 1156483699.832977
ODOM 0.208000 0.009000 0.053690 0 0 0 1156483699.939959 pippo 1156483699.939959
ODOM 0.208000 0.009000 0.053690 0 0 0 1156483700.045943 pippo 1156483700.045943
ODOM 0.208000 0.009000 0.053690 0 0 0 1156483700.152928 pippo 1156483700.152928
ODOM 0.208000 0.009000 0.053690 0 0 0 1156483700.259909 pippo 1156483700.259909
ODOM 0.208000 0.009000 0.053690 0 0 0 1156483700.366893 pippo 1156483700.366893
ODOM 0.208000 0.009000 0.053690 0 0 0 1156483700.472879 pippo 1156483700.472879
ODOM 0.208000 0.009000 0.053690 0 0 0 1156483700.579862 pippo 1156483700.579862
ODOM 0.208000 0.009000 0.053690 0 0 0 1156483700.686845 pippo 1156483700.686845
ODOM 0.208000 0.009000 0.053690 0 0 0 1156483700.793829 pippo 1156483700.793829
ODOM 0.208000 0.009000 0.053690 0 0 0 1156483700.899814 pippo 1156483700.899814
ODOM 0.208000 0.009000 0.053690 0 0 0 1156483701.006798 pippo 1156483701.006798
ODOM 0.208000 0.009000 0.053690 0 0 0 1156483701.113779 pippo 1156483701.113779
ODOM 0.208000 0.009000 0.053690 0 0 0 1156483701.220334 pippo 1156483701.220334
ODOM 0.208000 0.009000 0.053690 0 0 0 1156483701.326776 pippo 1156483701.326776
ODOM 0.208000 0.009000 0.053690 0 0 0 1156483701.433747 pippo 1156483701.433747
ODOM 0.208000 0.009000 0.053690 0 0 0 1156483701.540728 pippo 1156483701.540728
ODOM 0.208000 0.009000 0.053690 0 0 0 1156483701.646701 pippo 1156483701.646701
ODOM 0.208000 0.009000 0.053690 0 0 0 1156483701.753682 pippo 1156483701.753682
ODOM 0.208000 0.009000 0.053690 0 0 0 1156483701.860666 pippo 1156483701.860666
ODOM 0.208000 0.009000 0.053690 0 0 0 1156483701.967651 pippo 1156483701.967651
ODOM 0.208000 0.009000 0.053690 0 0 0 1156483702.073636 pippo 1156483702.073636
ODOM 0.208000 0.009000 0.053690 0 0 0 1156483702.180619 pippo 1156483702.180619
ODOM 0.208000 0.009000 0.053690 0 0 0 1156483702.287602 pippo 1156483702.287602
ODOM 0.208000 0.009000 0.053690 0 0 0 1156483702.394048 pippo 1156483702.394048
ODOM 0.208000 0.009000 0.053690 0 0 0 1156483702.500573 pippo 1156483702.500573
ODOM 0.208000 0.009000 0.053690 0 0 0 1156483702.607552 pippo 1156483702.607552
ODOM 0.208000 0.009000 0.053690 0 0 0 1156483702.714535 pippo 1156483702.714535
ODOM 0.208000 0.009000 0.053690 0 0 0 1156483702.820522 pippo 1156483702.820522
ODOM 0.208000 0.009000 0.053690 0 0 0 1156483702.927504 pippo 1156483702.927504
ODOM 0.208000 0.009000 0.053690 0 0 0 1156483703.034488 pippo 1156483703.034488
ODOM 0.208000 0.009000 0.053690 0 0 0 1156483703.140608 pippo 1156483703.140608
ODOM 0.208000 0.009000 0.053690 0 0 0 1156483703.247459 pippo 1156483703.247459
ODOM 0.208000 0.009000 0.053690 0 0 0 1156483703.354448 pippo 1156483703.354448
ODOM 0.208000 0.009000 0.053690 0 0 0 1156483703.460424 pippo 1156483703.460424
ODOM 0.208000 0.009000 0.053690 0 0 0 1156483703.567409 pippo 1156483703.567409
ODOM 0.208000 0.009000 0.053690 0 0 0 1156483703.674393 pippo 1156483703.674393
ODOM 0.208000 0.009000 0.053690 0 0 0 1156483703.781375 pippo 1156483703.781375
ODOM 0.208000 0.009000 0.053690 0 0 0 1156483703.887361 pippo 1156483703.887361
ODOM 0.208000 0.009000 0.053690 0 0 0 1156483703.994344 pippo 1156483703.994344
ODOM 0.208000 0.009000 0.052950 0 0 0 1156483704.101327 pippo 1156483704.101327
ODOM 0.208000 0.009000 0.052156 0 0 0 1156483704.208308 pippo 1156483704.208308
ODOM 0.208000 0.009000 0.052156 0 0 0 1156483704.314311 pippo 1156483704.314311
ODOM 0.208000 0.009000 0.052156 0 0 0 1156483704.421277 pippo 1156483704.421277
ODOM 0.208000 0.009000 0.052156 0 0 0 1156483704.528263 pippo 1156483704.528263
ODOM 0.208000 0.009000 0.052156 0 0 0 1156483704.635246 pippo 1156483704.635246
ODOM 0.208000 0.009000 0.052156 0 0 0 1156483704.741230 pippo 1156483704.741230
ODOM 0.208000 0.009000 0.052156 0 0 0 1156483704.848214 pippo 1156483704.848214
ODOM 0.208000 0.009000 0.052156 0 0 0 1156483704.955196 pippo 1156483704.955196
ODOM 0.208000 0.009000 0.052156 0 0 0 1156483705.061195 pippo 1156483705.061195
ODOM 0.208000 0.009000 0.052156 0 0 0 1156483705.168164 pippo 1156483705.168164
ODOM 0.208000 0.009000 0.052156 0 0 0 1156483705.275268 pippo 1156483705.275268
ODOM 0.208000 0.009000 0.052156 0 0 0 1156483705.488119 pippo 1156483705.488119
ODOM 0.208000 0.009000 0.052156 0 0 0 1156483705.595100 pippo 1156483705.595100
ODOM 0.208000 0.009000 0.052156 0 0 0 1156483705.702086 pippo 1156483705.702086
ODOM 0.208000 0.009000 0.052156 0 0 0 1156483705.808067 pippo 1156483705.808067
ODOM 0.208000 0.009000 0.052156 0 0 0 1156483705.915052 pippo 1156483705.915052
ODOM 0.208000 0.009000 0.052156 0 0 0 1156483706.022034 pippo 1156483706.022034
ODOM 0.208000 0.009000 0.052156 0 0 0 1156483706.129020 pippo 1156483706.129020
ODOM 0.208000 0.009000 0.052156 0 0 0 1156483706.235004 pippo 1156483706.235004
ODOM 0.208000 0.009000 0.052156 0 0 0 1156483706.341988 pippo 1156483706.341988
ODOM 0.208000 0.009000 0.052156 0 0 0 1156483706.448970 pippo 1156483706.448970
ODOM 0.208000 0.009000 0.052156 0 0 0 1156483706.555952 pippo 1156483706.555952
ODOM 0.208000 0.009000 0.052156 0 0 0 1156483706.661938 pippo 1156483706.661938
ODOM 0.208000 0.009000 0.052156 0 0 0 1156483706.768920 pippo 1156483706.768920
ODOM 0.208000 0.009000 0.052156 0 0 0 1156483706.875904 pippo 1156483706.875904
ODOM 0.208000 0.009000 0.052156 0 0 0 1156483706.981891 pippo 1156483706.981891
ODOM 0.208000 0.009000 0.052156 0 0 0 1156483707.088873 pippo 1156483707.088873
ODOM 0.208000 0.009000 0.052156 0 0 0 1156483707.195867 pippo 1156483707.195867
ODOM 0.208000 0.009000 0.052156 0 0 0 1156483707.301839 pippo 1156483707.301839
ODOM 0.208000 0.009000 0.052156 0 0 0 1156483707.408825 pippo 1156483707.408825
ODOM 0.208000 0.009000 0.052156 0 0 0 1156483707.515832 pippo 1156483707.515832
ODOM 0.208000 0.009000 0.052156 0 0 0 1156483707.622807 pippo 1156483707.622807
ODOM 0.208000 0.009000 0.052156 0 0 0 1156483707.728778 pippo 1156483707.728778
ODOM 0.208000 0.009000 0.052156 0 0 0 1156483707.835761 pippo 1156483707.835761
ODOM 0.208000 0.009000 0.052156 0 0 0 1156483707.942741 pippo 1156483707.942741
ODOM 0.208000 0.009000 0.052156 0 0 0 1156483708.048754 pippo 1156483708.048754
ODOM 0.208000 0.009000 0.052156 0 0 0 1156483708.155709 pippo 1156483708.155709
ODOM 0.208000 0.009000 0.052156 0 0 0 1156483708.262695 pippo 1156483708.262695
ODOM 0.208000 0.009000 0.052156 0 0 0 1156483708.369678 pippo 1156483708.369678
ODOM 0.208000 0.009000 0.052156 0 0 0 1156483708.475661 pippo 1156483708.475661
ODOM 0.208000 0.009000 0.052156 0 0 0 1156483708.582647 pippo 1156483708.582647
ODOM 0.208000 0.009000 0.052156 0 0 0 1156483708.689628 pippo 1156483708.689628
ODOM 0.208000 0.009000 0.052156 0 0 0 1156483708.796615 pippo 1156483708.796615
ODOM 0.208000 0.009000 0.052156 0 0 0 1156483708.902599 pippo 1156483708.902599
ODOM 0.208000 0.009000 0.052156 0 0 0 1156483709.009581 pippo 1156483709.009581
ODOM 0.208000 0.009000 0.052156 0 0 0 1156483709.116573 pippo 1156483709.116573
ODOM 0.208000 0.009000 0.052156 0 0 0 1156483709.223547 pippo 1156483709.223547
ODOM 0.208000 0.009000 0.052156 0 0 0 1156483709.329535 pippo 1156483709.329535
ODOM 0.208000 0.009000 0.052156 0 0 0 1156483709.437350 pippo 1156483709.437350
ODOM 0.208000 0.009000 0.052156 0 0 0 1156483709.543514 pippo 1156483709.543514
ODOM 0.208000 0.009000 0.052156 0 0 0 1156483709.649483 pippo 1156483709.649483
ODOM 0.208000 0.009000 0.052156 0 0 0 1156483709.756466 pippo 1156483709.756466
ODOM 0.208000 0.009000 0.052156 0 0 0 1156483709.863449 pippo 1156483709.863449
ODOM 0.208000 0.009000 0.052156 0 0 0 1156483709.970435 pippo 1156483709.970435
ODOM 0.208000 0.009000 0.052156 0 0 0 1156483710.076420 pippo 1156483710.076420
ODOM 0.208000 0.009000 0.052156 0 0 0 1156483710.183404 pippo 1156483710.183404
ODOM 0.208000 0.009000 0.052156 0 0 0 1156483710.290386 pippo 1156483710.290386
ODOM 0.208000 0.009000 0.052156 0 0 0 1156483710.396371 pippo 1156483710.396371
ODOM 0.208000 0.009000 0.052156 0 0 0 1156483710.503354 pippo 1156483710.503354
ODOM 0.208000 0.009000 0.052156 0 0 0 1156483710.610338 pippo 1156483710.610338
ODOM 0.208000 0.009000 0.052156 0 0 0 1156483710.716322 pippo 1156483710.716322
ODOM 0.208000 0.009000 0.052156 0 0 0 1156483710.823306 pippo 1156483710.823306
ODOM 0.208000 0.009000 0.052156 0 0 0 1156483710.930287 pippo 1156483710.930287
ODOM 0.208000 0.009000 0.052156 0 0 0 1156483711.037347 pippo 1156483711.037347
ODOM 0.208000 0.009000 0.052156 0 0 0 1156483711.143258 pippo 1156483711.143258
ODOM 0.208000 0.009000 0.052156 0 0 0 1156483711.250241 pippo 1156483711.250241
ODOM 0.208000 0.009000 0.052156 0 0 0 1156483711.357247 pippo 1156483711.357247
ODOM 0.208000 0.009000 0.050731 0 0 0 1156483711.464210 pippo 1156483711.464210
ODOM 0.208000 0.009000 0.050622 0 0 0 1156483711.570191 pippo 1156483711.570191
ODOM 0.208000 0.009000 0.050622 0 0 0 1156483711.677179 pippo 1156483711.677179
ODOM 0.208000 0.009000 0.050622 0 0 0 1156483711.784158 pippo 1156483711.784158
ODOM 0.208000 0.009000 0.050622 0 0 0 1156483711.891154 pippo 1156483711.891154
ODOM 0.208000 0.009000 0.050622 0 0 0 1156483711.997127 pippo 1156483711.997127
ODOM 0.208000 0.009000 0.050622 0 0 0 1156483712.104112 pippo 1156483712.104112
ODOM 0.208000 0.009000 0.050622 0 0 0 1156483712.211095 pippo 1156483712.211095
ODOM 0.208000 0.009000 0.050622 0 0 0 1156483712.318077 pippo 1156483712.318077
ODOM 0.208000 0.009000 0.050622 0 0 0 1156483712.424063 pippo 1156483712.424063
ODOM 0.208000 0.009000 0.050622 0 0 0 1156483712.531045 pippo 1156483712.531045
ODOM 0.208000 0.009000 0.050622 0 0 0 1156483712.638030 pippo 1156483712.638030
ODOM 0.208000 0.009000 0.050622 0 0 0 1156483712.744014 pippo 1156483712.744014
ODOM 0.208000 0.009000 0.050622 0 0 0 1156483712.850996 pippo 1156483712.850996
ODOM 0.208000 0.009000 0.050622 0 0 0 1156483712.958197 pippo 1156483712.958197
ODOM 0.208000 0.009000 0.050622 0 0 0 1156483713.063966 pippo 1156483713.063966
ODOM 0.208000 0.009000 0.050622 0 0 0 1156483713.170951 pippo 1156483713.170951
ODOM 0.208000 0.009000 0.050622 0 0 0 1156483713.277930 pippo 1156483713.277930
ODOM 0.208000 0.009000 0.050622 0 0 0 1156483713.384914 pippo 1156483713.384914
ODOM 0.208000 0.009000 0.050622 0 0 0 1156483713.490900 pippo 1156483713.490900
ODOM 0.208000 0.009000 0.050622 0 0 0 1156483713.597884 pippo 1156483713.597884
ODOM 0.208000 0.009000 0.050622 0 0 0 1156483713.704893 pippo 1156483713.704893
ODOM 0.208000 0.009000 0.050622 0 0 0 1156483713.810849 pippo 1156483713.810849
ODOM 0.208000 0.009000 0.050622 0 0 0 1156483713.917837 pippo 1156483713.917837
ODOM 0.208000 0.009000 0.050622 0 0 0 1156483714.024820 pippo 1156483714.024820
ODOM 0.208000 0.009000 0.050622 0 0 0 1156483714.131807 pippo 1156483714.131807
ODOM 0.208000 0.009000 0.050622 0 0 0 1156483714.237787 pippo 1156483714.237787
ODOM 0.208000 0.009000 0.050622 0 0 0 1156483714.344770 pippo 1156483714.344770
ODOM 0.208000 0.009000 0.050622 0 0 0 1156483714.451752 pippo 1156483714.451752
ODOM 0.208000 0.009000 0.050622 0 0 0 1156483714.557737 pippo 1156483714.557737
ODOM 0.208000 0.009000 0.050622 0 0 0 1156483714.664723 pippo 1156483714.664723
ODOM 0.208000 0.009000 0.050622 0 0 0 1156483714.771707 pippo 1156483714.771707
ODOM 0.208000 0.009000 0.050622 0 0 0 1156483714.878700 pippo 1156483714.878700
ODOM 0.208000 0.009000 0.050622 0 0 0 1156483714.984671 pippo 1156483714.984671
ODOM 0.208000 0.009000 0.050622 0 0 0 1156483715.091658 pippo 1156483715.091658
ODOM 0.208000 0.009000 0.050622 0 0 0 1156483715.198641 pippo 1156483715.198641
ODOM 0.208000 0.009000 0.050622 0 0 0 1156483715.305622 pippo 1156483715.305622
ODOM 0.208000 0.009000 0.050622 0 0 0 1156483715.411607 pippo 1156483715.411607
ODOM 0.208000 0.009000 0.050622 0 0 0 1156483715.518592 pippo 1156483715.518592
ODOM 0.208000 0.009000 0.050622 0 0 0 1156483715.625574 pippo 1156483715.625574
ODOM 0.208000 0.009000 0.050622 0 0 0 1156483715.731569 pippo 1156483715.731569
ODOM 0.208000 0.009000 0.050622 0 0 0 1156483715.838547 pippo 1156483715.838547
ODOM 0.208000 0.009000 0.050622 0 0 0 1156483715.945528 pippo 1156483715.945528
ODOM 0.208000 0.009000 0.050622 0 0 0 1156483716.052512 pippo 1156483716.052512
ODOM 0.208000 0.009000 0.050622 0 0 0 1156483716.158495 pippo 1156483716.158495
ODOM 0.208000 0.009000 0.050622 0 0 0 1156483716.265478 pippo 1156483716.265478
ODOM 0.208000 0.009000 0.050622 0 0 0 1156483716.372461 pippo 1156483716.372461
ODOM 0.208000 0.009000 0.050622 0 0 0 1156483716.479445 pippo 1156483716.479445
ODOM 0.208000 0.009000 0.050622 0 0 0 1156483716.585430 pippo 1156483716.585430
ODOM 0.208000 0.009000 0.050622 0 0 0 1156483716.692413 pippo 1156483716.692413
ODOM 0.208000 0.009000 0.050622 0 0 0 1156483716.799405 pippo 1156483716.799405
ODOM 0.208000 0.009000 0.050622 0 0 0 1156483716.905379 pippo 1156483716.905379
ODOM 0.208000 0.009000 0.050622 0 0 0 1156483717.012365 pippo 1156483717.012365
ODOM 0.208000 0.009000 0.050622 0 0 0 1156483717.119346 pippo 1156483717.119346
ODOM 0.208000 0.009000 0.050622 0 0 0 1156483717.226332 pippo 1156483717.226332
ODOM 0.208000 0.009000 0.050622 0 0 0 1156483717.332315 pippo 1156483717.332315
ODOM 0.208000 0.009000 0.050622 0 0 0 1156483717.439300 pippo 1156483717.439300
ODOM 0.208000 0.009000 0.050622 0 0 0 1156483717.546284 pippo 1156483717.546284
ODOM 0.208000 0.009000 0.050622 0 0 0 1156483717.653272 pippo 1156483717.653272
ODOM 0.208000 0.009000 0.050622 0 0 0 1156483717.759264 pippo 1156483717.759264
ODOM 0.208000 0.009000 0.050622 0 0 0 1156483717.866235 pippo 1156483717.866235
ODOM 0.208000 0.009000 0.050622 0 0 0 1156483717.973218 pippo 1156483717.973218
ODOM 0.208000 0.009000 0.050622 0 0 0 1156483718.079204 pippo 1156483718.079204
ODOM 0.208000 0.009000 0.050622 0 0 0 1156483718.186187 pippo 1156483718.186187
ODOM 0.208000 0.009000 0.050622 0 0 0 1156483718.293168 pippo 1156483718.293168
ODOM 0.208000 0.009000 0.050622 0 0 0 1156483718.399152 pippo 1156483718.399152
ODOM 0.208000 0.009000 0.050622 0 0 0 1156483718.506139 pippo 1156483718.506139
ODOM 0.208000 0.009000 0.050622 0 0 0 1156483718.613122 pippo 1156483718.613122
ODOM 0.208000 0.009000 0.050622 0 0 0 1156483718.720275 pippo 1156483718.720275
ODOM 0.208000 0.009000 0.050622 0 0 0 1156483718.826089 pippo 1156483718.826089
ODOM 0.208000 0.009000 0.050622 0 0 0 1156483718.933072 pippo 1156483718.933072
ODOM 0.208000 0.009000 0.050622 0 0 0 1156483719.040056 pippo 1156483719.040056
ODOM 0.208000 0.009000 0.050622 0 0 0 1156483719.147039 pippo 1156483719.147039
ODOM 0.208000 0.009000 0.050622 0 0 0 1156483719.253024 pippo 1156483719.253024
ODOM 0.208000 0.009000 0.050622 0 0 0 1156483719.360007 pippo 1156483719.360007
ODOM 0.208000 0.009000 0.050622 0 0 0 1156483719.466991 pippo 1156483719.466991
ODOM 0.208000 0.009000 0.050622 0 0 0 1156483719.572975 pippo 1156483719.572975
ODOM 0.208000 0.009000 0.050622 0 0 0 1156483719.679960 pippo 1156483719.679960
ODOM 0.208000 0.009000 0.050622 0 0 0 1156483719.786941 pippo 1156483719.786941
ODOM 0.208000 0.009000 0.050622 0 0 0 1156483719.892925 pippo 1156483719.892925
ODOM 0.208000 0.009000 0.050622 0 0 0 1156483719.999909 pippo 1156483719.999909
ODOM 0.208000 0.009000 0.050622 0 0 0 1156483720.106891 pippo 1156483720.106891
ODOM 0.208000 0.009000 0.050622 0 0 0 1156483720.213894 pippo 1156483720.213894
ODOM 0.208000 0.009000 0.050622 0 0 0 1156483720.319862 pippo 1156483720.319862
ODOM 0.208000 0.009000 0.050622 0 0 0 1156483720.426847 pippo 1156483720.426847
ODOM 0.208000 0.009000 0.050622 0 0 0 1156483720.533828 pippo 1156483720.533828
ODOM 0.208000 0.009000 0.050622 0 0 0 1156483720.640825 pippo 1156483720.640825
ODOM 0.208000 0.009000 0.050622 0 0 0 1156483720.746798 pippo 1156483720.746798
ODOM 0.208000 0.009000 0.050622 0 0 0 1156483720.853782 pippo 1156483720.853782
ODOM 0.208000 0.009000 0.050622 0 0 0 1156483720.960763 pippo 1156483720.960763
ODOM 0.208000 0.009000 0.050622 0 0 0 1156483721.066747 pippo 1156483721.066747
ODOM 0.208000 0.009000 0.050622 0 0 0 1156483721.173730 pippo 1156483721.173730
ODOM 0.208000 0.009000 0.050622 0 0 0 1156483721.281046 pippo 1156483721.281046
ODOM 0.208000 0.009000 0.050622 0 0 0 1156483721.387700 pippo 1156483721.387700
ODOM 0.208000 0.009000 0.050622 0 0 0 1156483721.493686 pippo 1156483721.493686
ODOM 0.208000 0.009000 0.050622 0 0 0 1156483721.600667 pippo 1156483721.600667
ODOM 0.208000 0.009000 0.050622 0 0 0 1156483721.707649 pippo 1156483721.707649
ODOM 0.208000 0.009000 0.050622 0 0 0 1156483721.813633 pippo 1156483721.813633
ODOM 0.208000 0.009000 0.050622 0 0 0 1156483721.920618 pippo 1156483721.920618
ODOM 0.208000 0.009000 0.050622 0 0 0 1156483722.027605 pippo 1156483722.027605
ODOM 0.208000 0.009000 0.050622 0 0 0 1156483722.134587 pippo 1156483722.134587
ODOM 0.208000 0.009000 0.050622 0 0 0 1156483722.240569 pippo 1156483722.240569
ODOM 0.208000 0.009000 0.050622 0 0 0 1156483722.347555 pippo 1156483722.347555
ODOM 0.208000 0.009000 0.050622 0 0 0 1156483722.454536 pippo 1156483722.454536
ODOM 0.208000 0.009000 0.050622 0 0 0 1156483722.561530 pippo 1156483722.561530
ODOM 0.208000 0.009000 0.050622 0 0 0 1156483722.667506 pippo 1156483722.667506
ODOM 0.208000 0.009000 0.050622 0 0 0 1156483722.774490 pippo 1156483722.774490
ODOM 0.208000 0.009000 0.050622 0 0 0 1156483722.881470 pippo 1156483722.881470
ODOM 0.208000 0.009000 0.050622 0 0 0 1156483722.987455 pippo 1156483722.987455
ODOM 0.208000 0.009000 0.050622 0 0 0 1156483723.094440 pippo 1156483723.094440
ODOM 0.208000 0.009000 0.050622 0 0 0 1156483723.201424 pippo 1156483723.201424
ODOM 0.208000 0.009000 0.050622 0 0 0 1156483723.308408 pippo 1156483723.308408
ODOM 0.208000 0.009000 0.050622 0 0 0 1156483723.414391 pippo 1156483723.414391
ODOM 0.208000 0.009000 0.050622 0 0 0 1156483723.521374 pippo 1156483723.521374
ODOM 0.208000 0.009000 0.050622 0 0 0 1156483723.628356 pippo 1156483723.628356
ODOM 0.208000 0.009000 0.050622 0 0 0 1156483723.734342 pippo 1156483723.734342
ODOM 0.208000 0.009000 0.050622 0 0 0 1156483723.841327 pippo 1156483723.841327
ODOM 0.208000 0.009000 0.050622 0 0 0 1156483723.949366 pippo 1156483723.949366
ODOM 0.208000 0.009000 0.050622 0 0 0 1156483724.055307 pippo 1156483724.055307
ODOM 0.208000 0.009000 0.050622 0 0 0 1156483724.161279 pippo 1156483724.161279
ODOM 0.208000 0.009000 0.050622 0 0 0 1156483724.268263 pippo 1156483724.268263
ODOM 0.208000 0.009000 0.050622 0 0 0 1156483724.375245 pippo 1156483724.375245
ODOM 0.208000 0.009000 0.050622 0 0 0 1156483724.482270 pippo 1156483724.482270
ODOM 0.208000 0.009000 0.050622 0 0 0 1156483724.588214 pippo 1156483724.588214
ODOM 0.208000 0.009000 0.050622 0 0 0 1156483724.695197 pippo 1156483724.695197
ODOM 0.208000 0.009000 0.050622 0 0 0 1156483724.802180 pippo 1156483724.802180
ODOM 0.208000 0.009000 0.050622 0 0 0 1156483724.908162 pippo 1156483724.908162
ODOM 0.208000 0.009000 0.050622 0 0 0 1156483725.015146 pippo 1156483725.015146
